,category,coordinates,id,lat,lng,name,price_level,rating,review_count
0,food,POINT (-0.071753 51.524099),CrQcYS4nWWdXmSD1pxf_KA,51.524099,-0.071753,Beigel Bake,1,4.0,428
1,food,POINT (-0.0718118 51.5243997),zjqHfmPFsaeoA6yW8_QWgw,51.5243997,-0.0718118,Beigel Shop,1,4.0,93
2,food,POINT (-0.103907 51.564874),EquyqFGMnK0rdXuDoTIASQ,51.564874,-0.103907,The Happening Bagel Bakery,1,3.5,32
3,food,POINT (-0.2007461 51.5739863),1iZkMMh1PZnCjQhJLivG3Q,51.5739863,-0.2007461,Carmelli,1,4.0,22
4,food,POINT (-0.107180203631838 51.5488038967598),vSm0jUjtOhwThUU5uzqdCQ,51.5488038967598,-0.107180203631838,The Barn,1,4.0,14
5,food,POINT (-0.074235334232473 51.557398906635),rK1GME2iK1i0rf3OAxhr5w,51.557398906635,-0.074235334232473,The Bagel House,1,3.5,14
6,food,POINT (-0.0954441 51.4872504),BnY-qn2yadsc6KvOYECMbg,51.4872504,-0.0954441,Bagel King,1,3.5,12
7,food,POINT (-0.0644858 51.5220242),8tsGkeT6Z9EhT8UvBzVtWw,51.5220242,-0.0644858,Rinkoff Bakeries,1,4.0,9
8,food,POINT (-0.171735 51.5492132),YylEzHSqw17R8ObuKofATA,51.5492132,-0.171735,Roni's Bagel Bakery,1,2.5,8
9,food,POINT (-0.219407 51.50388),EeyF4I5YENHrNQICqxe4nA,51.50388,-0.219407,Bagel Bite,1,4.5,8
10,food,POINT (-0.130116 51.489739),ZxhhCHzUREglwK_vdwxn1w,51.489739,-0.130116,Relish,1,4.0,6
11,food,POINT (-0.176303 51.516701),InYz9jM0R8b5lanf_LSx2w,51.516701,-0.176303,Bagel Factory,1,3.0,5
12,food,POINT (-0.0441807 51.5365259),NZ_lwkS352kLOfsAieVtIw,51.5365259,-0.0441807,Bagel on the Park,1,3.0,5
13,food,POINT (-0.109089 51.51959),ouUibt3L9NmacPoLChpbOw,51.51959,-0.109089,Tongue & Brisket,1,4.5,3
14,food,POINT (-0.09737999999999999 51.522495),SsZ_TFGecDvrTZRso-44sw,51.522495,-0.09738,Beigels,1,2.5,3
15,food,POINT (-0.10901600428735 51.596166897172),q6l_9z7lM0K_U_Ge0aUI1g,51.596166897172,-0.10901600428735,Black Tap Coffee,1,4.5,3
16,food,POINT (-0.163504 51.522406),KVIGheKU8DSSocX_rXkVDg,51.522406,-0.163504,Bagel Factory,1,3.0,2
17,food,POINT (-0.113603 51.517868),__Rr2IzTfms8R1hscm09ww,51.517868,-0.113603,Bites of Italy,1,5.0,2
18,food,POINT (-0.0766429975628853 51.5161781311035),SSR3l5nvasiyfB_ouYqrRQ,51.5161781311035,-0.0766429975628853,Kossoff,1,3.5,2
19,food,POINT (-0.07460832595825199 51.5141006899409),NbIaeJpPNFok8e3zCeRW6A,51.5141006899409,-0.074608325958252,Bagel World,1,4.0,2
20,food,POINT (-0.25144100189209 51.5297660827637),OAswR5IvovOQfk3DnO24xQ,51.5297660827637,-0.25144100189209,Ixxy's Bagels,1,1.0,1
21,food,POINT (-0.094848 51.570689),SbTb5skNZY84m9jL1LBBNQ,51.570689,-0.094848,Manor House Bagel Bakery,1,3.0,1
22,food,POINT (-0.149638 51.513985),-Dp9BIhLuCpksvUFQN7rYg,51.513985,-0.149638,Simit Sarayi,2,2.5,10
23,food,POINT (-0.2240265 51.5898851),AGIb_GVxwwE-LhOrZ2dZiw,51.5898851,-0.2240265,Hendon Bagel Bakery,2,3.0,7
24,food,POINT (-0.0878100022673607 51.5176277160645),0IRgFSfgRhODdd9vy2Xsbw,51.5176277160645,-0.0878100022673607,Bagelmania,2,3.5,4
25,food,POINT (-0.14178 51.517487),x7VriI_w1HYHV0CsppOy8Q,51.517487,-0.14178,Masters Sandwich Bar,2,3.5,3
26,food,POINT (-0.125881 51.516784),S4RHchXFQX6OkVonfzlYWg,51.516784,-0.125881,Bagel Nash,2,2.5,3
27,food,POINT (-0.11233110988427 51.4635200051716),rarkAClKRFw0fN-MpDNWoQ,51.4635200051716,-0.11233110988427,The Bell & Brisket,2,5.0,1
28,food,POINT (-0.071753 51.524099),CrQcYS4nWWdXmSD1pxf_KA,51.524099,-0.071753,Beigel Bake,1,4.0,428
29,food,POINT (-0.122449 51.5122),vt3Klo2UTjlvQD4AvU7d2A,51.5122,-0.122449,Ben's Cookies,1,4.5,140
30,food,POINT (-0.1261821 51.5119236),0tJs57Xoq75-RDWKVco0nw,51.5119236,-0.1261821,Bageriet,1,5.0,57
31,food,POINT (-0.1132291 51.4617347),pSUwN4KXpsnpifV8Rh8xIQ,51.4617347,-0.1132291,Ms. Cupcake,1,4.5,56
32,food,POINT (-0.132045 51.511631),G1aPOo0NS5srqfY5p2zIuw,51.511631,-0.132045,Kowloon,1,3.0,53
33,food,POINT (-0.0915919 51.5057829),KZd0pTzAhKbIs9Lg94Delg,51.5057829,-0.0915919,Bread Ahead,1,4.5,53
34,food,POINT (-0.1825811 51.4949745),f4bEfbf1_VyZpLsvlonhMw,51.4949745,-0.1825811,PAUL - Gloucester Road,1,4.5,52
35,food,POINT (-0.0530246183202313 51.5198880062398),OLXnVhh19HtAnbywQzD3zw,51.5198880062398,-0.0530246183202313,Rinkoff Bakeries,1,4.5,48
36,food,POINT (-0.252125 51.4927),YfKn2fkIyXC2jmE1qmgxQw,51.4927,-0.252125,Outsider Tart,1,4.5,47
37,food,POINT (-0.129721 51.512026),uCmXqPY3cOIHxda-HDxB0Q,51.512026,-0.129721,Chinatown Bakery,1,4.0,41
38,food,POINT (-0.174093428393717 51.4937555152063),w-YDWOzxkHTenKZMpCsS2g,51.4937555152063,-0.174093428393717,Ben's Cookies,1,4.0,40
39,food,POINT (-0.1035965 51.5365826),DY2qHkTlkWB8UVxnaCWj-w,51.5365826,-0.1035965,Euphorium Bakery,1,3.5,35
40,food,POINT (-0.165139898919551 51.4990676958953),DUS7Nz3429d2iv0q-Jky9A,51.4990676958953,-0.165139898919551,Paul,1,4.0,34
41,food,POINT (-0.103907 51.564874),EquyqFGMnK0rdXuDoTIASQ,51.564874,-0.103907,The Happening Bagel Bakery,1,3.5,32
42,food,POINT (-0.1885342 51.5005205),riWepzZEIHj82UiDk_WVLQ,51.5005205,-0.1885342,Montparnasse Cafe,1,4.5,31
43,food,POINT (-0.192502003553608 51.5007758207176),sHZIxu0B3V7OkHUSjzWAcA,51.5007758207176,-0.192502003553608,Ben's Cookies,1,4.0,28
44,food,POINT (-0.2007461 51.5739863),1iZkMMh1PZnCjQhJLivG3Q,51.5739863,-0.2007461,Carmelli,1,4.0,22
45,food,POINT (-0.147835303580364 51.5143230206963),4Ijw-vBjg22Zn5FxLy7L9Q,51.5143230206963,-0.147835303580364,Ben's Cookies,1,4.0,22
46,food,POINT (-0.227837562561035 51.4926600176647),rQKDeNCx8LkUR12YH9LpVg,51.4926600176647,-0.227837562561035,Bäkehaus,1,4.5,20
47,food,POINT (-0.260265 51.492659),ZPRqFr0P7Ce9NktBb8dy6w,51.492659,-0.260265,GAIL's Bakery Chiswick,1,4.0,20
48,food,POINT (-0.136225003564404 51.5159485207167),vlcaL_UIRPl7UzO8Hxx8lg,51.5159485207167,-0.136225003564404,Ben's Cookies,1,4.0,19
49,food,POINT (-0.1184675 51.5273865),wh4R2zTxcjZw4JcQFNBtog,51.5273865,-0.1184675,Aux Pains de Papy,1,5.0,19
50,food,POINT (-0.113189220428467 51.4617615420279),7pZSLEAOBOOcaHaISwlLUQ,51.4617615420279,-0.113189220428467,Wild Caper,1,4.0,18
51,food,POINT (-0.1209978 51.5125853),WPFvrltIPhVm0hMo_RKKCw,51.5125853,-0.1209978,Peyton and Byrne,1,4.0,17
52,food,POINT (-0.2059419 51.5072197),BPjwtgikFls_cs4ZIZse6g,51.5072197,-0.2059419,PAUL - Holland Park,1,3.5,17
53,food,POINT (-0.1227604 51.5135034),HXjHL0L7lqtQQ1KJ0ZKAug,51.5135034,-0.1227604,Kastner and Ovens,1,4.5,17
54,food,POINT (-0.134119004011154 51.4972038269043),GkRcJuoFrfOkacK-h285bg,51.4972038269043,-0.134119004011154,Stiles Bakery,1,4.0,17
55,food,POINT (-0.111818999052048 51.4626312255859),zE_UPVsKaoNX0dhuN5jqlg,51.4626312255859,-0.111818999052048,Burnt Toast Cafe,1,4.0,15
56,food,POINT (-0.09977248858792589 51.5804495317793),EwfP3qXpnWP23zvEgwmhoQ,51.5804495317793,-0.0997724885879259,Yasar Halim,1,4.0,15
57,food,POINT (-0.1319 51.51081),BD2h6G18Tb8CoK6SmLfJfg,51.51081,-0.1319,Bake,1,3.0,14
58,food,POINT (-0.1659348 51.5510701),zjX_19K5wWXcdD3ZruZizg,51.5510701,-0.1659348,Euphorium Bakery,1,3.5,14
59,food,POINT (-0.107180203631838 51.5488038967598),vSm0jUjtOhwThUU5uzqdCQ,51.5488038967598,-0.107180203631838,The Barn,1,4.0,14
60,food,POINT (-0.156502 51.519155),bCkjiJ6wM3vFBebsu9PtgA,51.519155,-0.156502,Paul,1,4.0,14
61,food,POINT (-0.1778994 51.4924431),BZ96WsFu82jq65zs4Y2MsQ,51.4924431,-0.1778994,Aux Merveilleux de Fred,1,4.5,13
62,food,POINT (-0.205981699624434 51.4450952518046),rn70OOQObZ5TxvIahNSl7w,51.4450952518046,-0.205981699624434,Chanteroy,1,5.0,13
63,food,POINT (-0.122435174762825 51.5118923302027),2DPvfVF6vSEaZ5JqDFnXTw,51.5118923302027,-0.122435174762825,Sweetheart,1,4.0,12
64,food,POINT (-0.164168363651068 51.4321338559897),B1WnM3iz6Zgm7hEXp4Rjvw,51.4321338559897,-0.164168363651068,Pooja Sweets & Savouries,1,4.0,12
65,food,POINT (-0.1734508 51.5166095),v15QYkGuOjhdqDV60r08QQ,51.5166095,-0.1734508,Bonne Bouche Catering,1,3.5,12
66,food,POINT (-0.1403202 51.5367341),-3USXGHx6Xcpwq-ueoED7g,51.5367341,-0.1403202,Melissa,1,4.0,11
67,food,POINT (-0.1029761 51.5410032),ZmPuLx41P8x2aYX3_nk7Fg,51.5410032,-0.1029761,Artisan Gluten Free Bakery,1,4.0,11
68,food,POINT (-0.167 51.5145),bK1O3WdwSdz-lMD5NozPIg,51.5145,-0.167,Le Pain Quotidien,1,4.0,10
69,food,POINT (-0.103420352592472 51.5907485426882),pCuFgwtpg_7nXv94r9DObg,51.5907485426882,-0.103420352592472,Granier Bakery,1,4.0,10
70,food,POINT (-0.1339005 51.5104),P4rFlCsevSiJuwshO6wF7g,51.5104,-0.1339005,Simit Sarayi,1,3.0,10
71,food,POINT (-0.143927823389436 51.4962890220788),EbT5viLW9ujk9iQ73CJcmQ,51.4962890220788,-0.143927823389436,The Pasty Shop,1,4.5,9
72,food,POINT (-0.071576 51.5184915),78P_MEpAuokAM7gxss829A,51.5184915,-0.071576,Dum Dum Donutterie - Brick Lane,1,4.0,9
73,food,POINT (-0.17442595252823 51.4944460442895),a8SzxsJygwZgPrHHSTUjfw,51.4944460442895,-0.17442595252823,GAIL's Bakery South Kensington,1,4.0,9
74,food,POINT (-0.1407642 51.5370833),pa2j9BlCHH8mRIk-TtD6UQ,51.5370833,-0.1407642,Camden Bakery,1,4.5,9
75,food,POINT (-0.236022540998695 51.4930805319587),3ZWC6EkdLcUe80Vq097Bfg,51.4930805319587,-0.236022540998695,Patisserie Sainte Anne,1,5.0,9
76,food,POINT (-0.109304069567938 51.5140955515015),WXdvvDADvJTpDUkU4rkp5Q,51.5140955515015,-0.109304069567938,Le Montmartre,1,4.5,9
77,food,POINT (-0.0644858 51.5220242),8tsGkeT6Z9EhT8UvBzVtWw,51.5220242,-0.0644858,Rinkoff Bakeries,1,4.0,9
78,food,POINT (-0.189566 51.501697),R3Qxjswa4zFNm6ZKiBplCA,51.501697,-0.189566,Le Pain Quotidien,1,3.5,9
79,food,POINT (-0.1646677 51.5498302),D21Iu0qiqjvFWVHgs3JyhQ,51.5498302,-0.1646677,GAIL's Bakery Belsize Park,1,3.5,8
80,food,POINT (-0.171735 51.5492132),YylEzHSqw17R8ObuKofATA,51.5492132,-0.171735,Roni's Bagel Bakery,1,2.5,8
81,food,POINT (-0.0566952 51.4660904),SGFChjEHGxDAMBQ60qqrJw,51.4660904,-0.0566952,J F Ayre,1,4.0,8
82,food,POINT (-0.0977451 51.5393189),DARE_WvgMZINvslycDPJFQ,51.5393189,-0.0977451,Raab's Bakery,1,5.0,8
83,food,POINT (-0.140184631193612 51.4622928473215),ZQfjDBIZKOp5ecbTPFjRrw,51.4622928473215,-0.140184631193612,Tart,1,5.0,8
84,food,POINT (-0.1612475 51.5467256),oBBZNKhhEEje6kF5BQIslw,51.5467256,-0.1612475,Bonjour Brioche,1,4.5,7
85,food,POINT (-0.06816560000000001 51.5149431),VoN5pEsu3kre_EJ0ARro7g,51.5149431,-0.0681656,Benugo,1,4.5,7
86,food,POINT (-0.200182567250863 51.5856304611745),-pHQiT_Yr2PVrsy1wzsKZA,51.5856304611745,-0.200182567250863,Daniels Bagel Bakery,1,4.0,7
87,food,POINT (-0.195469 51.5005393),HRsDwb5-HA6ow3hwGeiQWw,51.5005393,-0.195469,Exeter Street Bakery,1,4.0,7
88,food,POINT (-0.191448 51.551319),cCsoJbAhbLF0thM2FYSHag,51.551319,-0.191448,Roni's Bagel Bakery,1,3.0,7
89,food,POINT (-0.147758083979957 51.5424720431701),i_EYL49nPSGMWVnlBzd2uA,51.5424720431701,-0.147758083979957,The Flour Station,1,3.5,6
90,food,POINT (-0.143398 51.590711),QY93gF-HkOKt7MDhviCmCA,51.590711,-0.143398,The Bakers Of Muswell Hill,1,3.5,6
91,food,POINT (-0.0568032910156262 51.5459505106933),TEoiwGVGdrC-TRIR7euT-Q,51.5459505106933,-0.0568032910156262,Percy Ingle,1,3.5,6
92,food,POINT (-0.1350042 51.5641588),SOMKtZ5eZyI0ernb4YT14g,51.5641588,-0.1350042,Yildiz Bakery,1,4.0,5
93,food,POINT (-0.243717 51.493321),7w-JKQmoK6pHVdYs5pb0Pw,51.493321,-0.243717,Stamford Larder,1,4.0,5
94,food,POINT (-0.068554 51.468194),vtncqGQ0RGTCWNRGeKaOHA,51.468194,-0.068554,Small White Elephant,1,4.5,5
95,food,POINT (-0.0757133133748053 51.4602410231235),yemHrQ_ihk3trlQN3gKGoQ,51.4602410231235,-0.0757133133748053,Brick House,1,4.5,5
96,food,POINT (-0.1112481 51.5334748),hIX8OnBdcl5PmmS4SmcpPQ,51.5334748,-0.1112481,Jaz & Jul's Chocolate House,1,4.0,5
97,food,POINT (-0.0868376002033394 51.5145453143133),0c7cKS4cE7YkkEveqBgz4g,51.5145453143133,-0.0868376002033394,Euphorium Bakery,1,3.0,5
98,food,POINT (-0.1029058 51.5427367),FqxTB8R1e7Ds5y7lL3MP1Q,51.5427367,-0.1029058,Beyond Bread Bakery,1,4.0,5
99,food,POINT (0.008805078014235111 51.4662734911187),SqdjMuxQ0PM1GmwnFyvZEA,51.4662734911187,0.00880507801423511,Greggs,1,4.0,5
100,food,POINT (-0.221268303555743 51.5076002207034),q0mDfCbGX6mAEDv_6bd16g,51.5076002207034,-0.221268303555743,Ben's Cookies,1,5.0,5
101,food,POINT (-0.101794884523395 51.5631700994203),8DnkrluJbO3lLP0dGjUnGg,51.5631700994203,-0.101794884523395,Bakhtiar's Naan,1,4.5,5
102,food,POINT (-0.1938599 51.40271),46WxcHS93vbH2nWcmMzfIg,51.40271,-0.1938599,Greggs,1,3.5,5
103,food,POINT (-0.124154090881348 51.5800031677096),haRKlI9YguyZV1GGdPXLwA,51.5800031677096,-0.124154090881348,Sable D'Or,1,3.5,5
104,food,POINT (-0.2557518 51.4928438),XnGv5tv0BGs7FapaiI3HCQ,51.4928438,-0.2557518,Nikki's Bakery,1,3.5,5
105,food,POINT (-0.0583132356405258 51.5377001594943),y89iGnu2dRref9ZXgCCytA,51.5377001594943,-0.0583132356405258,Yeast Bakery,1,4.0,4
106,food,POINT (-0.06924710000000001 51.4955192),klqP4NUFEl9kA6DIyRHpjA,51.4955192,-0.0692471,Little Bread Pedlar,1,4.5,4
107,food,POINT (-0.2068644 51.4746146),WqJ5Pp0pB-kZI6qa4tdlsA,51.4746146,-0.2068644,Greggs,1,4.0,4
108,food,POINT (-0.0574035861396499 51.4735603549998),_S-eQiUsS9ye2ZedB8JqcA,51.4735603549998,-0.0574035861396499,Blackbird Bakery,1,4.0,4
109,food,POINT (-0.1081303 51.5334152),7TFu_n4q2qGLgZbCWuiIQg,51.5334152,-0.1081303,Stiles Bakery,1,3.5,4
110,food,POINT (-0.179327130317688 51.5135851135776),HAi7bThXmEtooc5ZQq9hdw,51.5135851135776,-0.179327130317688,Leclerc and Laurent,1,4.5,4
111,food,POINT (-0.008999999612569811 51.4811820983887),XJ087_-Rq1zF51aDpaCXsQ,51.4811820983887,-0.00899999961256981,Monsoon Cafe,1,4.0,4
112,food,POINT (-0.11328200250864 51.6193199157715),uVUxvmCCLqtuv30DKT0kGA,51.6193199157715,-0.11328200250864,Baskervilles Tea Shop,1,5.0,4
113,food,POINT (-0.1185168 51.511421),v2V5t7kmAAQltJLbW85_uQ,51.511421,-0.1185168,Greggs,1,3.5,4
114,food,POINT (-0.133308 51.528674),uIZCIa46tUWSDBJ1ZH3reQ,51.528674,-0.133308,West Cornwall Pasty,1,4.0,4
115,food,POINT (-0.212776 51.554757),innfi7a5kE5BBsjXBCbpdw,51.554757,-0.212776,Broadway Bagel Bakery,1,4.0,4
116,food,POINT (-0.0915342 51.5057134),nJCrB6YMwKn00T5y9FeUwQ,51.5057134,-0.0915342,Mrs King's Pork Pies,1,4.0,4
117,food,POINT (-0.095114 51.398422),oT_OFSrySBBGRLMZ-a3WdQ,51.398422,-0.095114,Cornfield Bakery,1,4.0,4
118,food,POINT (-0.1235708 51.5080729),UvfKtg3UjUEZqd2aIlVfzQ,51.5080729,-0.1235708,Simit Sarayi,1,2.5,3
119,food,POINT (-0.0902306581529395 51.4360564180226),ocNY4mwQUJxTndzwl6oS1g,51.4360564180226,-0.0902306581529395,The Dulwich Bakery,1,4.0,3
120,food,POINT (-0.2043933 51.38311),Q7S8o3S2-C2MVlCnoUivVA,51.38311,-0.2043933,The Old Rolling Pin,1,4.5,3
121,food,POINT (-0.171125 51.549152),Uwb_5cypIB_7h8ABl89lYA,51.549152,-0.171125,La Paletta,1,3.5,3
122,food,POINT (-0.08752 51.50505),QF8HaEPzqS4OJBY3SYrCGw,51.50505,-0.08752,Chatica Cafe Deli & Bakery,1,4.5,3
123,food,POINT (-0.11718 51.539747),FATOg3vQpgbrl_20WySbqQ,51.539747,-0.11718,Sunflour Bakery,1,4.5,3
124,food,POINT (-0.244608886110091 51.4741693718235),Ra9qby1TR-1GAWMoKUMHsQ,51.4741693718235,-0.244608886110091,GAIL's Bakery Barnes,1,3.0,3
125,food,POINT (-0.119 51.36286),zUErEUIrj5qBOTXNZmjiTQ,51.36286,-0.119,Tai Pan Bakery,1,4.5,3
126,food,POINT (-0.206449 51.517918),WFDgcMJyS-ieC42tvYT8ZA,51.517918,-0.206449,Happy Donuts,1,3.5,3
127,food,POINT (-0.214833 51.556003),8il2IaM8wmi2MUPMbk5SRA,51.556003,-0.214833,Bagel Delight Bakery,1,4.5,3
128,food,POINT (-0.109286576286921 51.5505726772283),1x5o4Wo4W0KyT8ydgxEk6g,51.5505726772283,-0.109286576286921,Greggs,1,4.5,3
129,food,POINT (-0.200543999671936 51.5733833312988),RomYnlJX4HSsPG9dKVOpfQ,51.5733833312988,-0.200543999671936,Paradise Bakery,1,3.5,3
130,food,POINT (-0.0510704 51.413286),KcXIK__u1GInd077KXTm6w,51.413286,-0.0510704,Penge Food Centre,1,4.5,3
131,food,POINT (-0.137472 51.51214),dmH3NEzlnel2gesDbrA2sw,51.51214,-0.137472,Greggs,1,3.5,3
132,food,POINT (-0.0270664 51.5341725),e-k9nOY6YL_wMhyPMAciKQ,51.5341725,-0.0270664,Percy Ingle,1,1.5,3
133,food,POINT (-0.138188934487744 51.5121612401552),9suEi8Hch0YjqnDNtBxhdQ,51.5121612401552,-0.138188934487744,Bread Ahead,1,5.0,3
134,food,POINT (-0.1410751 51.549704),mX4rNS0iUSJmcVjxQaqMCw,51.549704,-0.1410751,Greggs,1,3.5,2
135,food,POINT (-0.216497 51.461873),7HZgwfl2FhHms2norInJXg,51.461873,-0.216497,Greggs,1,4.0,2
136,food,POINT (-0.08827 51.50568),jatoyPgoPJNO7Fo8VH7kww,51.50568,-0.08827,Millie's Cookies,1,3.5,2
137,food,POINT (-0.0748622 51.5514222),J5ojeckCN2uyfDXJc8m2og,51.5514222,-0.0748622,Tugra Baklava,1,4.5,2
138,food,POINT (-0.1308129 51.4288057),DS0IXvGAQ6Fx3mTaGSGqQQ,51.4288057,-0.1308129,Mediterranean Bakery,1,4.0,2
139,food,POINT (-0.203881276128165 51.4200346122867),gn0gjtAIjsJTD1vvmXKGBw,51.4200346122867,-0.203881276128165,Greggs,1,3.5,2
140,food,POINT (-0.17006 51.356883),7mrG8EWtvumnHGJm1xn26Q,51.356883,-0.17006,Stennings Bakery,1,5.0,2
141,food,POINT (-0.09285 51.523571),3AgFuFnrm1Gc-VFViLVrFA,51.523571,-0.09285,Holmesbake,1,4.5,2
142,food,POINT (-0.0754968 51.5459727),L7Vvywx0FVe6StgC09kzrw,51.5459727,-0.0754968,Rainbow Bakery,1,5.0,2
143,food,POINT (-0.0964018 51.4890362),uUW5p5Y1eyp3fQ5_fXV8Hw,51.4890362,-0.0964018,Arif Bakery,1,4.0,2
144,food,POINT (-0.0766429975628853 51.5161781311035),SSR3l5nvasiyfB_ouYqrRQ,51.5161781311035,-0.0766429975628853,Kossoff,1,3.5,2
145,food,POINT (-0.263518 51.4926389),lhIN7fjVQSc1z9dnwLLtrQ,51.4926389,-0.263518,Greggs,1,3.5,2
146,food,POINT (-0.248735 51.4734846),MCrx9U_J9rna1QvVAr4Drg,51.4734846,-0.248735,Parish Bakery,1,3.5,2
147,food,POINT (-0.2669149 51.5083923),AfY9vnMmFxcAwvUnWCxbsQ,51.5083923,-0.2669149,The Mill Bakery,1,4.0,2
148,food,POINT (-0.0678728 51.3822377),adrqFfnUx53scyCCSGZcfQ,51.3822377,-0.0678728,Munch,1,3.5,2
149,food,POINT (-0.1413443 51.5473022),QyoBKggbx1wIpeL_5xeOVQ,51.5473022,-0.1413443,Le Moulin Bakery & Cafe,1,4.5,2
150,food,POINT (-0.226833372815758 51.5473808958179),gFVt0c8VylIIfC_3jhERmQ,51.5473808958179,-0.226833372815758,Witch Cafe,1,4.0,2
151,food,POINT (-0.2083475 51.4112336),WFvXinLcbtMcfxzz_G0L7g,51.4112336,-0.2083475,Panetteria Italiana,1,4.0,2
152,food,POINT (-0.0610082 51.5373939),yI_PZXYlBwMxeG946y5UGw,51.5373939,-0.0610082,Percy Ingle,1,4.0,2
153,food,POINT (-0.2094658 51.5169992),wsejguaYZcgpvMeY6hAs2w,51.5169992,-0.2094658,Tregesers,1,3.0,2
154,food,POINT (-0.055838 51.526471),GtSdDrYoWXP4WisaXOsfRg,51.526471,-0.055838,The Cafe,1,3.0,1
155,food,POINT (-0.11735 51.4670607),2aXrbS3UlLavZ16reCIY9g,51.4670607,-0.11735,Funchal Bakery,1,3.0,1
156,food,POINT (-0.101099 51.372971),pJXXdIlrHvS0dqYw6xraXQ,51.372971,-0.101099,Take Two Bakeries,1,4.0,1
157,food,POINT (-0.0551388 51.5484695),m6LYBrg65Aj09VpI3ALFUg,51.5484695,-0.0551388,Greggs,1,2.0,1
158,food,POINT (-0.154112120285845 51.5262600210274),V2efe5r2_9JTyJRTPu5pgA,51.5262600210274,-0.154112120285845,Espresso Bar,1,3.0,1
159,food,POINT (-0.220386385917664 51.4854194390251),qZdqZdIEJb03s5bgAL_S9A,51.4854194390251,-0.220386385917664,Pret A Manger,1,4.0,1
160,food,POINT (-0.12721 51.50643),4X7LLU3cNixJNUUlfBZXew,51.50643,-0.12721,Sweet Joy,1,5.0,1
161,food,POINT (-0.0363081 51.4648793),a08xMX6VbIxQNO4qRuKj8g,51.4648793,-0.0363081,Doorstep Bakery,1,5.0,1
162,food,POINT (-0.2032470703125 51.6554123865097),OlYKwESp0GNUecfUk2maXw,51.6554123865097,-0.2032470703125,Victoria Bakery,1,3.0,1
163,food,POINT (-0.134658627212048 51.5650194559458),oWz-N8lKHgSDclu0UevJTQ,51.5650194559458,-0.134658627212048,Greggs,1,3.0,1
164,food,POINT (-0.0353837 51.7024187),7kwMuujl6MtMSK10AQga5A,51.7024187,-0.0353837,Simmons,1,5.0,1
165,food,POINT (-0.073548 51.4485989),idLoRKRG-EISOG1lZcH1tw,51.4485989,-0.073548,Badger Bakery,1,4.0,1
166,food,POINT (-0.0933596371895784 51.4736300754556),Scs56ZdicPv6MR0TZxftFQ,51.4736300754556,-0.0933596371895784,Greggs the Bakers,1,4.0,1
167,food,POINT (-0.133913983592043 51.4972305655339),M6wYRnU-Qhsd0Q58Lx95Bg,51.4972305655339,-0.133913983592043,Greggs,1,1.0,1
168,food,POINT (-0.1236312 51.5992536),_afPyGAbPEsF1gneG5HzPw,51.5992536,-0.1236312,Sweet Tree Bakery,1,5.0,1
169,food,POINT (-0.135441 51.498349),qiVhJMRGn4hGcpwO274ZgA,51.498349,-0.135441,Greggs,1,4.0,1
170,food,POINT (-0.2084917 51.5217544),db4ZpBAYH6qvE-G743hn-w,51.5217544,-0.2084917,L'Etoile de Sous,1,4.0,1
171,food,POINT (-0.124763 51.470689),8gYI1_kVoGAEB5vm0u5mOQ,51.470689,-0.124763,Greggs,1,2.0,1
172,food,POINT (-0.131913 51.5188693),3PeQF-J_j89dcLcC0P5o4A,51.5188693,-0.131913,GAIL's Bakery - Bloomsbury,1,5.0,1
173,food,POINT (-0.226958 51.371562),fy8T0NX973usw4ct3tjMSQ,51.371562,-0.226958,Greggs,1,4.0,1
174,food,POINT (-0.059447 51.602626),55YFAC9OdaBaBKdSg7vaaA,51.602626,-0.059447,Caribbean Tasties,1,4.0,1
175,food,POINT (-0.13895 51.492137),zTPMH2vKxQg70H5BNAHOfw,51.492137,-0.13895,Bonne Bouche Catering,1,3.0,1
176,food,POINT (-0.11006130577968 51.521290113482),gppvUHSzGw13dLga4EvT4A,51.521290113482,-0.11006130577968,Greggs,1,5.0,1
177,food,POINT (-0.2669916 51.6010274),YzyJ0Yt6k4_raeSo9v9rNQ,51.6010274,-0.2669916,Greggs,1,3.0,1
178,food,POINT (-0.128899 51.63297),KdOQSRZI1H1YhTBGgLNUQA,51.63297,-0.128899,Greggs,1,2.0,1
179,food,POINT (-0.110275 51.609262),5S6nKGdjaWP-BrIr5XhhnA,51.609262,-0.110275,Lefteris Bakery,1,4.0,1
180,food,POINT (-0.0523996 51.414896),wArELEHERClGgH5m-ass2g,51.414896,-0.0523996,Munch & Crunch,1,1.0,1
181,food,POINT (-0.2306278 51.4924907),EsHJXyueg6Z_URlbYfb08g,51.4924907,-0.2306278,Greggs,1,3.0,1
182,food,POINT (-0.0756333 51.5483526),NE8-ozRyGQ2WfgDIfFIXqw,51.5483526,-0.0756333,Greggs,1,3.0,1
183,food,POINT (-0.0834824244733282 51.6520641688162),kfKo6R94e81YA2R53iEY5g,51.6520641688162,-0.0834824244733282,Greggs,1,4.0,1
184,food,POINT (-0.11489 51.5929718),B-aMmGyLuYZI5agZT0TbZQ,51.5929718,-0.11489,The Celtic Bakers,1,4.0,1
185,food,POINT (-0.00985599961131811 51.4817085266113),TMJ4wNlC2vs_x87Xas0i4A,51.4817085266113,-0.00985599961131811,Goddards Pies Limited,1,2.0,1
186,food,POINT (-0.170704 51.5231976),II0FOfFrZ3_bMHYh8BT1fQ,51.5231976,-0.170704,Kurdistan Bakery,1,5.0,1
187,food,POINT (-0.015541 51.5763359),YXOCPSz9E_MFBEmk9LjSfg,51.5763359,-0.015541,Aadams Bagels,1,2.0,1
188,food,POINT (-0.1172373 51.5562247),kwFjmpV8WXpAxwmXTKBPog,51.5562247,-0.1172373,Bagel Bakery,1,4.0,1
189,food,POINT (-0.134387051472991 51.5138629586873),-ATEXu2q4Oe4wPQeyrsILw,51.5138629586873,-0.134387051472991,Princi,2,4.0,298
190,food,POINT (-0.2038738 51.5140019),QyYFRNphu0fICXNfZjD_AA,51.5140019,-0.2038738,The Hummingbird Bakery,2,4.0,129
191,food,POINT (-0.074299 51.5196695),m3vdBGC0X94sG_5pglDcjQ,51.5196695,-0.074299,St. John Bread & Wine,2,4.0,122
192,food,POINT (-0.13674108684063 51.5114297969411),Sh_PrXavTAk2d5jTs_onuQ,51.5114297969411,-0.13674108684063,Nordic Bakery,2,3.5,113
193,food,POINT (-0.134845145998042 51.5144372642472),x3xVIhjTy6jZ8PhKVqYjIw,51.5144372642472,-0.134845145998042,The Hummingbird Bakery,2,4.0,107
194,food,POINT (-0.19941762827537 51.514890823172),L-ZNTln24SoU_jYia4M19Q,51.514890823172,-0.19941762827537,Ottolenghi,2,4.0,92
195,food,POINT (-0.175513593691228 51.4933421535998),amwXVuFLQbmANNjDKjbXrw,51.4933421535998,-0.175513593691228,The Hummingbird Bakery,2,3.5,85
196,food,POINT (-0.130203 51.513328),iy4bfIy9umgE7pcfPgbB7Q,51.513328,-0.130203,Maison Bertaux,2,3.5,84
197,food,POINT (-0.0789638981223106 51.5092887647333),xViBKVW8zxlrxLfDam2eqg,51.5092887647333,-0.0789638981223106,Byward Kitchen & Bar,2,4.0,83
198,food,POINT (-0.070496 51.515994),DAE3fIusVTUGt9PDwPlelg,51.515994,-0.070496,Exmouth Coffee Company,2,4.5,78
199,food,POINT (-0.095509 51.513394),W2mLUxdAjkYJrgBvRhSwLw,51.513394,-0.095509,Bea's of Bloomsbury,2,3.5,74
200,food,POINT (-0.149131484387577 51.4926912521198),9gqKbR6JK79zTc5RDLP_4A,51.4926912521198,-0.149131484387577,Dominique Ansel Bakery,2,4.0,72
201,food,POINT (-0.130676001310349 51.5200996398926),MXYj38qKszh9Z7YATzmrrA,51.5200996398926,-0.130676001310349,Store Street Espresso,2,4.0,62
202,food,POINT (-0.1566887 51.4995017),kAgxFPCeNiZeiKc9POkiOg,51.4995017,-0.1566887,Ottolenghi,2,4.0,62
203,food,POINT (-0.125664994120598 51.5304946899414),m6BgtRtLokxKFz0muL72nA,51.5304946899414,-0.125664994120598,Le Pain Quotidien,2,3.5,59
204,food,POINT (-0.20344594848854 51.514255658517),Lxhbq_b8tbCdji7N4g3hGw,51.514255658517,-0.20344594848854,GAIL's Bakery Notting Hill,2,3.5,54
205,food,POINT (-0.139477045507874 51.5131469191648),R04ZnWYi9X6wQmNP5VTVIw,51.5131469191648,-0.139477045507874,Choccywoccydoodah,2,4.0,54
206,food,POINT (-0.196546 51.508836),qH-kupTBzRj5lvgaS9xzTA,51.508836,-0.196546,Le Pain Quotidien,2,4.0,48
207,food,POINT (-0.197821710268124 51.4810170254556),wevzuVRW4TQXc95WmDihsw,51.4810170254556,-0.197821710268124,Del Aziz,2,4.0,45
208,food,POINT (-0.124539992630842 51.5100888407083),tH_2560cbjme-hFBFVj8cQ,51.5100888407083,-0.124539992630842,Brigit's Bakery,2,4.0,44
209,food,POINT (-0.13916 51.5144366),g8-HDSVwGUe0QUxwV4pAjQ,51.5144366,-0.13916,Le Pain Quotidien,2,4.0,43
210,food,POINT (-0.0915485 51.5055488),uwQVCV7lXyHM2uvwKei-Dw,51.5055488,-0.0915485,Konditor & Cook,2,4.5,42
211,food,POINT (-0.1033616065979 51.5427319901397),fboXK2ea8fwt70oGftVQyQ,51.5427319901397,-0.1033616065979,Euphorium Bakery,2,3.5,41
212,food,POINT (-0.11706866199961 51.5054302233632),RSV_nJRKmf0JOy4xE5Ebug,51.5054302233632,-0.11706866199961,Le Pain Quotidien,2,3.5,38
213,food,POINT (-0.194478 51.49332),Da8ClETsPknyD-XIam-jbg,51.49332,-0.194478,Maroush Bakehouse,2,4.5,38
214,food,POINT (-0.136271 51.518955),UmtsEdY0a84PjO1qZYXuWA,51.518955,-0.136271,Beyond Bread Bakery,2,4.0,37
215,food,POINT (-0.109331067055787 51.5259196414871),ZStgRS5r_7Dk18JFoIjiRw,51.5259196414871,-0.109331067055787,GAIL's Bakery Exmouth Market,2,4.0,36
216,food,POINT (-0.1511222 51.5402263),dIWOqYszVKk-oswXDzUH6A,51.5402263,-0.1511222,Primrose Bakery,2,4.0,36
217,food,POINT (-0.1423182 51.4941248),mQ9xQov8ZSfXfmkSRd95Vg,51.4941248,-0.1423182,Le Pain Quotidien,2,4.0,36
218,food,POINT (-0.194281597508819 51.5096498950531),oZFmFK_7utppr5Dqtn7oEw,51.5096498950531,-0.194281597508819,Paul Rhodes Bakery,2,4.0,36
219,food,POINT (-0.155362205202783 51.5195197231171),0ELgHfe7stliT6GrxiTnKA,51.5195197231171,-0.155362205202783,Nordic Bakery,2,3.5,35
220,food,POINT (-0.1343362 51.5123136),MtJQNJVJsICx_YZ1LDOqBw,51.5123136,-0.1343362,Cutter and Squidge,2,3.5,35
221,food,POINT (-0.1200692 51.5121558),lS18-lYE7omlFJw-1_FohQ,51.5121558,-0.1200692,Primrose Bakery,2,3.0,33
222,food,POINT (-0.110367141112856 51.5042899533514),1epk2D1-2-g08GAntFlySg,51.5042899533514,-0.110367141112856,Konditor & Cook,2,4.5,33
223,food,POINT (-0.152221 51.521258),qnzpTVsWxTnxRoOG_sh-pQ,51.521258,-0.152221,Le Pain Quotidien,2,4.0,33
224,food,POINT (-0.1779628 51.5561216),1OcBgrUzPgp82BfZBUKRow,51.5561216,-0.1779628,GAIL's Bakery Hampstead,2,4.5,32
225,food,POINT (-0.122458287894274 51.5117318259883),orJE0zxhnnZY3IUWBOil_Q,51.5117318259883,-0.122458287894274,Le Pain Quotidien,2,3.5,31
226,food,POINT (-0.1326965 51.509238),5or4AzNouZq8RClNeTdqiA,51.509238,-0.1326965,Ole and Steen,2,4.5,31
227,food,POINT (-0.17958285670861 51.525646318334),JIKFw7ufE__d3rupaxyq6A,51.525646318334,-0.17958285670861,Baker & Spice,2,3.0,30
228,food,POINT (-0.084731 51.552179),bFDguUBQljn9K43GGsG5-Q,51.552179,-0.084731,Belle Epoque,2,3.5,30
229,food,POINT (-0.0575289 51.5411866),-6GHU4qI0DKsIrBpv57qTg,51.5411866,-0.0575289,E5 Bakehouse,2,4.5,29
230,food,POINT (-0.173815995454788 51.4948959350586),bM8qTgxbKDAwzec-ejwcsg,51.4948959350586,-0.173815995454788,Le Pain Quotidien,2,3.5,29
231,food,POINT (-0.134518146514893 51.5143112170147),in1fuQDAfRBIb7cGnOEviA,51.5143112170147,-0.134518146514893,GAIL's Bakery Soho,2,4.0,29
232,food,POINT (-0.150758 51.4936),jIuiv7VJkAAM5bRCuKNozg,51.4936,-0.150758,Baker & Spice,2,4.0,28
233,food,POINT (-0.098634 51.514511),ttROKeMmaM1k39JogTAFSA,51.514511,-0.098634,Paul,2,4.0,28
234,food,POINT (-0.16090849657059 51.514461025878),mdy8N4wPOlOSiatLWKjLGg,51.514461025878,-0.16090849657059,The Borough Barista,2,4.5,26
235,food,POINT (-0.07605065782249509 51.5321125496558),6Hc37w-thLXw4_pD3mZdJA,51.5321125496558,-0.0760506578224951,Fabrique Bakery,2,4.5,24
236,food,POINT (-0.12406009445317 51.526409002227),7TETeEdYvewlhdjmMSwLdg,51.526409002227,-0.12406009445317,Pâtisserie Deux Amis,2,4.0,23
237,food,POINT (-0.135307 51.563741),5cG7uMYFsL4JuozWg5lDfA,51.563741,-0.135307,Bread and Bean,2,4.0,22
238,food,POINT (-0.108356158213729 51.5262672253177),mUIww29FcFs5E67eZsMdvw,51.5262672253177,-0.108356158213729,Sweet Boulangerie & Patisserie,2,4.0,22
239,food,POINT (-0.111929 51.51969),-PAvIOieAnJH9ZZwZCR2iQ,51.51969,-0.111929,Konditor & Cook,2,4.0,21
240,food,POINT (-0.1237851 51.5784633),UWp5pMuqwuNxECSq5XMVew,51.5784633,-0.1237851,Dunn's Bakery,2,4.5,20
241,food,POINT (-0.149599000811577 51.5190963745117),2FJXCOJP6xynY7GkqGpoIg,51.5190963745117,-0.149599000811577,Nordic Bakery,2,4.0,20
242,food,POINT (-0.0818327581216316 51.5614171256386),sZ56toaeL3ZljSQ093ZnBQ,51.5614171256386,-0.0818327581216316,The Spence Bakery,2,3.5,19
243,food,POINT (-0.10038 51.513601),8Xet6oq_yuv8iSN-s33eng,51.513601,-0.10038,Le Pain Quotidien,2,4.0,18
244,food,POINT (-0.104014 51.535991),pqTMc3_vESPNKOukhzPUog,51.535991,-0.104014,Vivo,2,4.0,18
245,food,POINT (-0.12840236007971 51.5134638236347),Q-f511k1hYDIKfKIpC_HIw,51.5134638236347,-0.12840236007971,Fabrique Bakery,2,4.0,18
246,food,POINT (-0.07297594550777831 51.5210655305934),XD89DGPLbNTjVhesu5wyIA,51.5210655305934,-0.0729759455077783,Kooky Bakes,2,4.5,18
247,food,POINT (-0.0694279 51.5163799),xpW3CY9PaobEnAzDaTUyUQ,51.5163799,-0.0694279,Grounded Coffee,2,4.5,18
248,food,POINT (-0.2049677 51.535468),6VsXY4IEXLS0fshyJCHuRg,51.535468,-0.2049677,GAIL's Bakery Queen's Park,2,4.0,17
249,food,POINT (-0.106344223022461 51.5312670306865),XmUWjHm8Uh_UCyDsr6LFVw,51.5312670306865,-0.106344223022461,Hummingbird Bakery,2,3.5,17
250,food,POINT (-0.12510033116717 51.465915224149),X8UxGRF_ju6cfIB2fZizqQ,51.465915224149,-0.12510033116717,Old Post Office Bakery,2,4.5,16
251,food,POINT (-0.164682 51.4939913),L5bYiNsHg-hKJraeFXBSYA,51.4939913,-0.164682,Baker & Spice,2,4.0,16
252,food,POINT (-0.075961 51.499488),C3Dp2ONw3fntVgUTwCjHLg,51.499488,-0.075961,St John Bakery,2,4.0,16
253,food,POINT (-0.069948483866682 51.5294183186138),eBR8ZoJD2AV4NUz1ZrWx1w,51.5294183186138,-0.069948483866682,Lily Vanilli,2,3.5,16
254,food,POINT (-0.192893868972578 51.4922526690858),VQCzUGBY63yVE-FxLg6vqg,51.4922526690858,-0.192893868972578,Paul,2,4.0,15
255,food,POINT (-0.171694 51.5336595),6DwwLF424xP7VTPNznVTYQ,51.5336595,-0.171694,GAIL's Bakery St John's Wood,2,3.5,15
256,food,POINT (-0.190891 51.5384383),S_1iMSbWOa4I7pa8BxWZag,51.5384383,-0.190891,Hart & Lova,2,4.5,15
257,food,POINT (-0.0767323002219 51.5178570645),cEqChFjsQajetqse5yRDNw,51.5178570645,-0.0767323002219,The Hummingbird Bakery,2,4.0,14
258,food,POINT (-0.12519 51.51589),558q-5dnt5g-tPVfOIQQSw,51.51589,-0.12519,Le Pain Quotidien,2,3.0,14
259,food,POINT (-0.091394940760572 51.506293222721),K69_hmLhHHkXnjHxGayQVQ,51.506293222721,-0.091394940760572,Le Pain Quotidien,2,4.0,14
260,food,POINT (-0.134076 51.520537),8XfKF1eVShg0f0-26Z2hhg,51.520537,-0.134076,Le Pain Quotidien,2,3.5,13
261,food,POINT (0.008114934981589579 51.4666048067219),G-1TEmoYbKEqzpv7es3VrA,51.4666048067219,0.00811493498158958,Boulangerie Jade,2,4.0,13
262,food,POINT (-0.200859752649591 51.4747183394791),fOt-axIriLvALeG_qr3tXg,51.4747183394791,-0.200859752649591,Le Pain Quotidien,2,3.5,13
263,food,POINT (-0.1915139 51.5018836),HZiwHAw7rLdazQa9v_A77g,51.5018836,-0.1915139,Caffe Concerto Kensington,2,3.0,12
264,food,POINT (-0.135098 51.519809),dHKMox7KTahRA5twcsII6w,51.519809,-0.135098,Candy Cakes,2,3.0,12
265,food,POINT (-0.17428060715306 51.4944755952411),rzQLHAiK0Om_tDg5wa1IvA,51.4944755952411,-0.17428060715306,Paul,2,4.0,12
266,food,POINT (-0.177899133802772 51.5563755878521),BvU6oKbhClKAmGd4vTnRhA,51.5563755878521,-0.177899133802772,Paul,2,4.0,12
267,food,POINT (-0.144772 51.5082),3pSL2HkqQknoRfFWyh0s0w,51.5082,-0.144772,LOLA's,2,3.5,11
268,food,POINT (-0.100412668500134 51.5066352772979),U_XeFWW1Lttdq22txTABMw,51.5066352772979,-0.100412668500134,GAIL's Bakery Neo Bankside,2,4.0,11
269,food,POINT (-0.15332 51.51331),mxvMUakOCbfj4nsjM4bFxg,51.51331,-0.15332,Le Pain Quotidien,2,4.0,11
270,food,POINT (-0.176761 51.4602156),L5CS1lFQDc8I_tTrPZ-d1w,51.4602156,-0.176761,Deli Boutique,2,4.5,11
271,food,POINT (-0.160964 51.514595),LgKc7xGArsmxAw6xUQ2mYA,51.514595,-0.160964,GAIL's Bakery Seymour Place,2,4.5,11
272,food,POINT (-0.149638 51.513985),-Dp9BIhLuCpksvUFQN7rYg,51.513985,-0.149638,Simit Sarayi,2,2.5,10
273,food,POINT (-0.184762999415398 51.5246696472168),hLg5fxKmxMP5y7LJTtPSmg,51.5246696472168,-0.184762999415398,Amoul's,2,4.0,10
274,food,POINT (-0.180673 51.486059),uIAVNMMCAoTnHwRNuqkfdQ,51.486059,-0.180673,GAIL's Bakery Fulham Road,2,3.5,10
275,food,POINT (-0.1657095 51.5541143),stJjL9xB2I9pgPfNgwZzig,51.5541143,-0.1657095,Le Pain Quotidien,2,3.5,10
276,food,POINT (-0.22185 51.50917),GKn4YUT4XU-sJdOmyjJ_OQ,51.50917,-0.22185,Le Pain Quotidien,2,3.0,9
277,food,POINT (-0.1348773 51.5213964),XMnSNrc9NEJctyv2y4aezw,51.5213964,-0.1348773,Peyton and Byrne,2,4.0,9
278,food,POINT (-0.008855999999999999 51.481844),qI-y4rekpgYwiuY6Zs8Hkg,51.481844,-0.008856,Rhodes Bakery,2,4.0,9
279,food,POINT (-0.201469101011753 51.5177900934312),Sxe2lUli3t_XA5aKYUqqkQ,51.5177900934312,-0.201469101011753,The Butter Bakery,2,4.5,9
280,food,POINT (-0.2434094 51.502884),daidrpgY-NNmBc-9Bkubog,51.502884,-0.2434094,Laveli Bakery,2,4.0,9
281,food,POINT (-0.163826 51.489669),c3FSE1StNyacmCphyB99aA,51.489669,-0.163826,Paul,2,4.0,9
282,food,POINT (-0.123467445373535 51.5797098131827),M299m1eVQ6W4TlGzg-d5oQ,51.5797098131827,-0.123467445373535,GAIL's Bakery Crouch End,2,4.5,9
283,food,POINT (-0.0095817 51.4811936),nd86bSBdiDwW9hVd5mNWaw,51.4811936,-0.0095817,Peyton And Byrne,2,3.5,9
284,food,POINT (-0.2628609 51.4961528),6Igt4b8iaXfLRAax8XFY9Q,51.4961528,-0.2628609,Laveli Bakery,2,4.0,9
285,food,POINT (-0.165723802891784 51.5544616396241),Vc_Pw4jlrak_LlCk8DHBJA,51.5544616396241,-0.165723802891784,Karma Bread,2,4.5,8
286,food,POINT (-0.0121614709496498 51.5467760275982),i3H7BJdBN8wc5U-rnftjkg,51.5467760275982,-0.0121614709496498,Signorelli,2,4.0,8
287,food,POINT (-0.0185733 51.503074),4Ccpf8fEyvwCM9L4DXOjMQ,51.503074,-0.0185733,Le Pain Quotidien,2,4.0,8
288,food,POINT (-0.1744692 51.4609604),VJCTPXElbCem_PSNFv6Xxg,51.4609604,-0.1744692,Story Coffee,2,3.5,8
289,food,POINT (-0.0452811 51.4830583),a0UIJSwW12twtYgtvHFGQw,51.4830583,-0.0452811,Flour Power City,2,5.0,8
290,food,POINT (-0.139246 51.508135),XLZZ1MsocZiXavD39zfHgg,51.508135,-0.139246,Paul,2,4.0,8
291,food,POINT (-0.166771993041039 51.5555419921875),1S3fexJCAujlQzIrOC6CpA,51.5555419921875,-0.166771993041039,Euphorium Bakery,2,3.5,8
292,food,POINT (-0.2604483 51.4925802),y9ePQyhhd65d88P10S5NMQ,51.4925802,-0.2604483,Bread Shop,2,4.0,8
293,food,POINT (-0.165136 51.456328),mnRiHkVxRxL70m5IL1ReMw,51.456328,-0.165136,The Breadstall,2,5.0,8
294,food,POINT (-0.18457271248931 51.524617465733),C7LRspVCq8Qda-JTinKbQw,51.524617465733,-0.18457271248931,Cafe TOAST,2,3.5,7
295,food,POINT (-0.08036100119352339 51.5144844055176),H8aXJXmf2qViMCngOyYsIA,51.5144844055176,-0.0803610011935234,Konditor & Cook,2,4.5,7
296,food,POINT (-0.170631408691406 51.4634192579234),WvvFWthShKm6zWYKlSyqAg,51.4634192579234,-0.170631408691406,Knot Coffee and Pretzels,2,4.5,7
297,food,POINT (-0.08521737011198741 51.448924705633),TyX0tJktI5YjNiyF9vQKsw,51.448924705633,-0.0852173701119874,GAIL's Bakery Dulwich Village,2,3.5,7
298,food,POINT (-0.1695532 51.4869789),NEP07WOnUlv2sX7MB5MWzQ,51.4869789,-0.1695532,Le Pain Quotidien,2,3.0,7
299,food,POINT (-0.142135620117188 51.5072466571743),BD22tD5747OYXxV5HF-fuw,51.5072466571743,-0.142135620117188,Rose Bakery,2,3.5,7
300,food,POINT (-0.08981064760730401 51.473763328735),OOJTf27dRVOTrokw1ZnOZA,51.473763328735,-0.089810647607304,Sophocles Bakery,2,3.5,7
301,food,POINT (-0.122126 51.509971),6S2hfnR9fjjVNl-etjP0dA,51.509971,-0.122126,PAUL  Strand,2,3.5,7
302,food,POINT (-0.2240265 51.5898851),AGIb_GVxwwE-LhOrZ2dZiw,51.5898851,-0.2240265,Hendon Bagel Bakery,2,3.0,7
303,food,POINT (-0.2053964 51.5167479),FM2fOny0zttmwnSeHCHzyA,51.5167479,-0.2053964,Fabrique Bakery,2,4.0,6
304,food,POINT (-0.151886 51.518483),LadBK3SupP7tmuKE2gQgdQ,51.518483,-0.151886,Paul,2,3.5,6
305,food,POINT (-0.163504 51.522406),KF5IgHJoXPe4hzFvTi_z6Q,51.522406,-0.163504,West Cornwall Pasty Co,2,4.0,6
306,food,POINT (0.009573 51.4657652),EcYxDcMFVsWgcoMtbjkEMg,51.4657652,0.009573,GAIL's Bakery Blackheath,2,4.0,6
307,food,POINT (-0.150838 51.493827),3AXQMV-Yirhfq4oQHry6tA,51.493827,-0.150838,Poilane,2,4.0,6
308,food,POINT (-0.130498 51.512802),cxGtUhbJ-7fwSDWZvrlgDA,51.512802,-0.130498,Konditor & Cook,2,4.0,6
309,food,POINT (-0.0714056 51.5732238),526yWZIgx7PQKJcBY8PWRg,51.5732238,-0.0714056,Grodzinski Bakers' Shops,2,4.0,5
310,food,POINT (-0.1031277 51.5417671),wqSQp4Ik3GDLvPPLcQSGMQ,51.5417671,-0.1031277,Romeo's Sugar Free Bakery,2,4.0,5
311,food,POINT (-0.263378 51.5088348),S--3Zg6kT54JETDh_qym7A,51.5088348,-0.263378,Laveli Bakery,2,4.5,5
312,food,POINT (0.0105796 51.5677932),1NayxZGorUiG39PWwCDWuw,51.5677932,0.0105796,Horizon,2,4.5,5
313,food,POINT (-0.1460863 51.4946723),MlWt6ou7mBG1eiOLUwl6YA,51.4946723,-0.1460863,Millie's Cookies,2,5.0,5
314,food,POINT (-0.255641 51.4917297),YZIsogwDym4uAgoAH3bQUw,51.4917297,-0.255641,Beehive,2,5.0,5
315,food,POINT (-0.103128254413605 51.5427478375484),HL5WLBu_thiEf8ix4BZvGg,51.5427478375484,-0.103128254413605,Belle Epoque,2,4.5,5
316,food,POINT (-0.114975 51.518154),NTFH1_-pBmw_pvQBJ4stlw,51.518154,-0.114975,Paul,2,3.5,5
317,food,POINT (-0.21582 51.424148),rz45N8lFxTPeWUrWaFCF-g,51.424148,-0.21582,Le Pain Quotidien,2,3.0,5
318,food,POINT (-0.160988 51.542276),NepoH95B72aOjj02r48ZWg,51.542276,-0.160988,Beverly Hills Bakery,2,5.0,4
319,food,POINT (-0.178098005232077 51.5564755501087),Q4khCfuPZ4K8ywvZJL-zjA,51.5564755501087,-0.178098005232077,Le Pain Quotidien,2,3.0,4
320,food,POINT (-0.2236863 51.5417218),DzfBbOXoqpZcl07lIPH83g,51.5417218,-0.2236863,Sprinkalicious Bakery,2,5.0,4
321,food,POINT (-0.237416 51.5480602),xzdNc1_06zOwMPorlDz7oA,51.5480602,-0.237416,Edward's Bakery,2,3.0,4
322,food,POINT (-0.09396799653768539 51.4716033935547),vEEelf9P89uOtmKN7rnP8g,51.4716033935547,-0.0939679965376854,Spice & Nice Bakery,2,3.5,4
323,food,POINT (-0.102820999920368 51.5195541381836),Uh9SQNzZldubQexejsUMpA,51.5195541381836,-0.102820999920368,Paul,2,4.5,4
324,food,POINT (-0.1602006 51.4352072),KS3Fnyvwb3Muus0oWMIiZQ,51.4352072,-0.1602006,Tartine Artisanal,2,4.5,4
325,food,POINT (-0.231351 51.2880553),dKlP2VeQmFVJsTRwnoYQSA,51.2880553,-0.231351,The Chalet Bakery,2,4.5,4
326,food,POINT (-0.107388 51.514392),U2RCtmDyAAxiD5VUunHJlg,51.514392,-0.107388,Paul,2,4.0,4
327,food,POINT (-0.078392898362679 51.461448272098),dJSEFT-qgfEvnNdP721Wkw,51.461448272098,-0.078392898362679,Blackbird Bakery,2,3.5,4
328,food,POINT (-0.158385 51.435225),FgUtWwjMcW5K9sCRhmoFFA,51.435225,-0.158385,Deelicious Nazish's Kitchen,2,5.0,4
329,food,POINT (-0.0088386 51.4816271),0_D-cBDrhU6Cx0hHeHVO3w,51.4816271,-0.0088386,Rubys of London,2,5.0,4
330,food,POINT (-0.08454100000000001 51.451567),rsMhJ-7Z6KXIDJJC7t436w,51.451567,-0.084541,Au Ciel,2,3.0,4
331,food,POINT (-0.08025 51.516757),Jyt3_q5IbTLN5HaFqTn9Tw,51.516757,-0.08025,Fernando's,2,3.0,4
332,food,POINT (-0.2210541 51.5874696),CCLONYoA5JIZqyPAeX8HGA,51.5874696,-0.2210541,Mr Baker,2,5.0,3
333,food,POINT (-0.205605 51.515927),jKtEEMiWzS1R46tbf3gB5g,51.515927,-0.205605,Sweet Things,2,4.0,3
334,food,POINT (-0.204597 51.444771),-dodNvPeDvDoKr8LK6KgxA,51.444771,-0.204597,Cakes By Robin,2,4.5,3
335,food,POINT (-0.0483225 51.4433257),w7oT9XIm8ZUjmof3t8O9HA,51.4433257,-0.0483225,Panari Cakes,2,2.5,3
336,food,POINT (-0.164288 51.5904),o7OxmT5XHWG3uzZPFRvRWw,51.5904,-0.164288,Chorak,2,4.0,3
337,food,POINT (-0.058356 51.539462),qmvTW4c9KGAcykHa9szLUg,51.539462,-0.058356,The Bread Station,2,4.5,3
338,food,POINT (-0.0771795970858509 51.5194227685323),f-RbDS8-vMjV2qPgpzlGRA,51.5194227685323,-0.0771795970858509,Konditor & Cook,2,4.0,3
339,food,POINT (-0.179241001605988 51.4867362976074),mNMhrpU4-XTL-wPw34L6Fg,51.4867362976074,-0.179241001605988,Maison Blanc,2,3.5,3
340,food,POINT (-0.0771795970858509 51.5194227685323),f-RbDS8-vMjV2qPgpzlGRA,51.5194227685323,-0.0771795970858509,Konditor & Cook,2,4.0,3
341,food,POINT (-0.138703 51.556159),Y0yKIA9bQ4HLZ7-TD3sgRA,51.556159,-0.138703,The Spence Bakery,2,4.0,3
342,food,POINT (-0.103904038342322 51.4337957191261),0MYCQ0Y9l7AkDF37YFw0MA,51.4337957191261,-0.103904038342322,Blackbird Bakery,2,4.5,3
343,food,POINT (-0.09377389999999999 51.5131989),Q1iPpBj2GytDvaK--q2AoA,51.5131989,-0.0937739,Paul,2,3.5,3
344,food,POINT (-0.126357 51.513968),N9Us3yivvR7vXJaKoYB4Bg,51.513968,-0.126357,Euphorium Bakery,2,4.0,3
345,food,POINT (-0.210399037166628 51.5213305703853),mW43jK-iGDQQeXsnFRZeFQ,51.5213305703853,-0.210399037166628,Pearl & Groove Bakery,2,4.5,3
346,food,POINT (-0.1489099 51.57116),RBCSPtMf9oNzNeOcYnXYkg,51.57116,-0.1489099,Le Pain Quotidien,2,2.5,3
347,food,POINT (-0.09796177748886641 51.5006384028998),s5oBASpDnlhR2DWkyffT2g,51.5006384028998,-0.0979617774888664,Mustard,2,4.0,3
348,food,POINT (-0.0015521 51.5809109),xoZh8a1_PlOwxoaESnae7w,51.5809109,-0.0015521,Bom Pecado,2,4.5,3
349,food,POINT (-0.0245407 51.5430036),sdTkKQJJq0UOytZj9YorKQ,51.5430036,-0.0245407,Galeta,2,5.0,3
350,food,POINT (-0.069471 51.513553),-X11ta8_G08LraoZJoHFaA,51.513553,-0.069471,The Pastry Parlour,2,5.0,3
351,food,POINT (-0.2163211 51.424351),Ws5BmnvlNxtYJrKIML_28w,51.424351,-0.2163211,GAIL's Bakery Wimbledon Village,2,3.5,2
352,food,POINT (-0.07375139999999999 51.5605075),X9s_4S7ixQ3i-m0iJdh0aA,51.5605075,-0.0737514,The Royal Bakery,2,4.5,2
353,food,POINT (-0.11263 51.707732),A990q8rXvhMzq2GHUWn5QA,51.707732,-0.11263,Simmons Bakeries Cuffley,2,3.5,2
354,food,POINT (-0.07405630000000001 51.558398),FEfzDsEOSdtHvf3aTrb6lQ,51.558398,-0.0740563,Akdeniz Bakery,2,4.5,2
355,food,POINT (-0.0442877 51.5373665),PW1PG7BwGqXkU_7LofbjKw,51.5373665,-0.0442877,Victoria Park Village,2,5.0,2
356,food,POINT (-0.1555661 51.5022907),gIPHsljBeSmbQ_KPJ3FgHA,51.5022907,-0.1555661,Maroush Bakehouse,2,3.5,2
357,food,POINT (-0.135317 51.519399),YTHYs1ISSZwGXrXyFJj7Wg,51.519399,-0.135317,Tesoro,2,4.0,2
358,food,POINT (-0.0913292 51.4001427),ENnzQVNnvyWJw7QCvP3JZA,51.4001427,-0.0913292,Heaven Sent Cookies & Cakes,2,5.0,2
359,food,POINT (-0.176127001643181 51.5156898498535),5aKBzS_J3DF2cxhzC5IGGw,51.5156898498535,-0.176127001643181,Delice de France,2,3.0,2
360,food,POINT (-0.0180208 51.5044637),rYw_ta4QnnYdoXHCAFl0wQ,51.5044637,-0.0180208,Sweet Couture,2,4.0,2
361,food,POINT (-0.045696 51.483201),f2lUunZyN5jFGRYl4jgGxA,51.483201,-0.045696,Flour Power City,2,4.5,2
362,food,POINT (-0.0826966 51.5175001),DksfTYwF4FGYBccFyQg15A,51.5175001,-0.0826966,Millie's Cookies,2,2.5,2
363,food,POINT (-0.198259 51.49743),HrhTYxK8VJCO3FR9EaFVYw,51.49743,-0.198259,Cafe Le Monde,2,2.5,2
364,food,POINT (-0.177963003516197 51.4703674316406),KSKOjj9oTjFhrV94lKNFyQ,51.4703674316406,-0.177963003516197,MyChelle's Baketique,2,2.5,2
365,food,POINT (-0.0163483 51.5292698),aUP-FC3pw_-TWvJkUPrXCw,51.5292698,-0.0163483,Cake-A-Lishious,2,5.0,2
366,food,POINT (-0.1242627 51.5090752),AT-FU18CE-t_okw1E_bhjQ,51.5090752,-0.1242627,Upper Crust,2,3.0,2
367,food,POINT (-0.1237862 51.5093114),BDhExKyL1fp_ijQKDL65cg,51.5093114,-0.1237862,Delice de France,2,3.5,2
368,food,POINT (-0.0910801 51.5052993),Qm8ZjdS4Cne9g4-FFFF0FA,51.5052993,-0.0910801,Olivier's Bakery,2,4.5,2
369,food,POINT (-0.180911 51.497607),7vRR1-p5mOD1qE0gcYvFNA,51.497607,-0.180911,Chelsea Cake Company,2,5.0,2
370,food,POINT (0.0062116 51.6321008),d-UGaEDnkMwvLT4qBGCBfQ,51.6321008,0.0062116,The London Cake Co,2,2.5,2
371,food,POINT (-0.0768451 51.519156),__2zhkr5e3ume9h-KfE3EQ,51.519156,-0.0768451,Flavourtown Bakery,2,4.5,2
372,food,POINT (-0.1394672 51.4549792),7HZKJ5RpGmUljo_XQaer0g,51.4549792,-0.1394672,GAIL's Bakery Abbeville Road,2,3.5,2
373,food,POINT (-0.159404 51.491453),H4ufO3AFwUYPF_VzjOpLSw,51.491453,-0.159404,Bread Boutique,2,3.5,2
374,food,POINT (-0.046697 51.613034),fgHzn2yJq9mqwpjgc_zUPQ,51.613034,-0.046697,New York Cakes,2,2.5,2
375,food,POINT (-0.2013824 51.4984466),VWxyTixVRr0bfnyMqdWY3A,51.4984466,-0.2013824,Primrose Bakery,2,2.5,2
376,food,POINT (-0.04496 51.39879),9EP1EskkfrXzq4ZuwvNnAw,51.39879,-0.04496,Cake Expectations,2,4.0,1
377,food,POINT (-0.131865 51.647647),FZlA3We7p8KvdDXuYNM_CQ,51.647647,-0.131865,The Cookie,2,5.0,1
378,food,POINT (-0.112044068663653 51.5033172924218),W5GIU5fCBqnKiXJIWzCG4A,51.5033172924218,-0.112044068663653,Lola's Cupcakes,2,5.0,1
379,food,POINT (-0.136047 51.521991),tQeBIlA7HLpTWcKofqka2A,51.521991,-0.136047,Greggs,2,4.0,1
380,food,POINT (-0.140656046569347 51.4920492171925),FeRP9CIb0TLDkDv9fbLe7g,51.4920492171925,-0.140656046569347,Quartiers,2,4.0,1
381,food,POINT (0.00490699987858534 51.6319580078125),brz3wC1kIpzTYkCPck-TWQ,51.6319580078125,0.00490699987858534,Belgique,2,5.0,1
382,food,POINT (-0.1495607 51.5621069),w9GbhEpA2V9swDByIyJnCw,51.5621069,-0.1495607,GAIL's Bakery,2,2.0,1
383,food,POINT (-0.0466167436990325 51.5443417513466),4K3PqroTaaOZouvD2GWjCw,51.5443417513466,-0.0466167436990325,Candy Shop,2,3.0,1
384,food,POINT (-0.206005138078128 51.4446474893976),dIk3kAEODcjh8QHeR51cBQ,51.4446474893976,-0.206005138078128,Greggs,2,4.0,1
385,food,POINT (-0.199621006846428 51.5821380615234),oI-xth9ge3e3eKbSqbyByQ,51.5821380615234,-0.199621006846428,Matok,2,5.0,1
386,food,POINT (-0.1770267 51.6158586),svC7dhtEVDICJb_qXer7zQ,51.6158586,-0.1770267,Yosi's Boulangerie,2,2.0,1
387,food,POINT (-0.124388833072833 51.5315154156368),meLEsEdzbHtLOeYpQxur8Q,51.5315154156368,-0.124388833072833,Pret,2,4.0,1
388,food,POINT (-0.1443541 51.4949738),80QVFJnH24z3RciYLvp90A,51.4949738,-0.1443541,Mario's Bakes Store,2,2.0,1
389,food,POINT (-0.2662697 51.3337466),CUNoOlsbbdTEDYWfFvvViw,51.3337466,-0.2662697,Greggs,2,3.0,1
390,food,POINT (-0.014586 51.511734),fIc_kVBqGqbVUy0YdrCubw,51.511734,-0.014586,Percy Ingle,2,3.0,1
391,food,POINT (-0.1458916 51.4903964),SreQJBXleJXu0lflFiJClw,51.4903964,-0.1458916,Fruitcake,2,2.0,1
392,food,POINT (-0.112064 51.513523),-uM-g3OMFZYvZzZHGOrwHw,51.513523,-0.112064,Cornish Bakehouse,2,1.0,1
393,food,POINT (-0.219602 51.426018),Lhrfp_RDxbr9la9EOA18kg,51.426018,-0.219602,Paul,2,4.0,1
394,food,POINT (-0.07527200000000001 51.562016),qa9Pgk8RMJuOOknebKeXfQ,51.562016,-0.075272,Aston's Bakery,2,5.0,1
395,food,POINT (-0.0806978 51.5347234),VJRc2iMaIsJVxZTcm1YQhQ,51.5347234,-0.0806978,Flour Power,2,4.0,1
396,food,POINT (-0.188584 51.442787),3jsAS_hDfDu7XKTQx5e8OA,51.442787,-0.188584,Manuel's Bakery,2,4.0,1
397,food,POINT (-0.123133037598674 51.51184286271),5_0GHVzaA2tgzHSvFt5idw,51.51184286271,-0.123133037598674,Ladurée,3,4.0,89
398,food,POINT (-0.134204553766584 51.510119954298),z3Fqk7Dz9AeQU1UyQHTreA,51.510119954298,-0.134204553766584,Cinnabon,3,4.0,37
399,food,POINT (-0.1373499 51.4989274),JpZjcxIChQrNkFw4PND6Cw,51.4989274,-0.1373499,The Royal Quarter Café,3,3.0,29
400,food,POINT (-0.127191884385164 51.5134164873925),zOcwqHpSKnEMonZxrJiM4g,51.5134164873925,-0.127191884385164,Pierre Herme,3,4.5,25
401,food,POINT (-0.142434 51.5160332),PckHHqNe1GRQIi5XTe5v2A,51.5160332,-0.142434,Paul,3,4.0,23
402,food,POINT (-0.1662797 51.4584026),k-Z0LXej1tgBzuuNoXyPOg,51.4584026,-0.1662797,GAIL's Bakery Northcote Road,3,4.0,17
403,food,POINT (-0.171059 51.533664),aaZmx0dj6HFXm_AZI0NJEw,51.533664,-0.171059,The Bread Shop,3,4.0,14
404,food,POINT (-0.141354 51.509162),xNFhS1xibcXnZh6ZRAgeYQ,51.509162,-0.141354,Charbonnel Et Walker,3,4.0,11
405,food,POINT (-0.255136013031006 51.4934463500977),NfGJGrSTdaExnEgZIwbVPg,51.4934463500977,-0.255136013031006,Maison Blanc,3,3.0,10
406,food,POINT (-0.1597783672174 51.492054852899),Wv1Zlca4NTkgFVjKgEJyog,51.492054852899,-0.1597783672174,Poilane,3,4.0,10
407,food,POINT (-0.020382 51.505188),-C_XNwbfJu3RMvdu0oDwZA,51.505188,-0.020382,PAUL Canary Wharf,3,4.0,9
408,food,POINT (-0.1022922 51.5219169),otcqF4l_4fhtvcxfQcqb_g,51.5219169,-0.1022922,The Larder,3,2.5,7
409,food,POINT (-0.1572602 51.5409262),NyokgJ-rDE5Zp8Ao3CJEQg,51.5409262,-0.1572602,Sweet Things,3,4.0,7
410,food,POINT (-0.135129 51.489738),ZQheA9iMELXcSbSbxB0p1A,51.489738,-0.135129,Tachbrook Bakery & Patisserie,3,3.5,7
411,food,POINT (-0.2232423 51.5072023),DRv8Ak9HLxEBFjoc5pajNw,51.5072023,-0.2232423,Caffe Concerto - Westfield,3,2.0,7
412,food,POINT (-0.0881136879324913 51.5132991193323),x0iTahfSmcBegR50pKtbWw,51.5132991193323,-0.0881136879324913,Ladurée,3,5.0,5
413,food,POINT (-0.184028157672174 51.4647477201238),5tIA8ET05tlWsD7IcQuofQ,51.4647477201238,-0.184028157672174,Cake Boy,3,4.5,4
414,food,POINT (-0.22185 51.5091705),fyRnTHFHokb4_OWm0yrGRA,51.5091705,-0.22185,Mr. Pretzels,3,4.5,4
415,food,POINT (-0.249339 51.349048),GdDd9-I70CqVHyTfpVr3DQ,51.349048,-0.249339,Corteil & Barratt,3,3.5,3
416,food,POINT (-0.166896 51.490707),BTDkYiXZs78lDkTPcv8NAA,51.490707,-0.166896,Jane Asher Party Cakes & Sugarcraft,3,3.5,3
417,food,POINT (-0.1252321 51.5248879),sPQPedtKH5RFFjwQsIStgA,51.5248879,-0.1252321,Marchmont Sandwich Bar,3,2.0,2
418,food,POINT (-0.259115990182637 51.5254057143973),JqjoGvzDcn-d4RKIw8m47g,51.5254057143973,-0.259115990182637,Patisserie Patchi,3,1.0,2
419,food,POINT (-0.1554246585414 51.438202480774),Cr1cde0SKMBwfp05IqVYTg,51.438202480774,-0.1554246585414,Dee Light Bakery,3,4.0,2
420,food,POINT (-0.149738 51.541263),02ybxBpQiX0wrR8sez3Z5A,51.541263,-0.149738,Miss Poppy Cakes,3,4.5,2
421,food,POINT (-0.0389293804764748 51.5449028015137),lDT89RHbeH-DJbQzOHObyA,51.5449028015137,-0.0389293804764748,Absolutely Cakes,3,3.0,1
422,food,POINT (-0.166988759199704 51.460126066474),yZV0GcZSk4rP18tQHXCuuA,51.460126066474,-0.166988759199704,Biscuiteers Icing Cafe,3,4.0,1
423,food,POINT (-0.0222966 51.5052578),_CNqbC-MnNLwsk48BL-r5A,51.5052578,-0.0222966,Candy Cakes,3,5.0,1
424,food,POINT (-0.0197876 51.5030022),JLxf9ajyqEaDFa2rqwR4IA,51.5030022,-0.0197876,Paul,3,3.0,1
425,food,POINT (-0.111818999052048 51.4626312255859),Wfrg8JFrL9vNer_UqhW6oA,51.4626312255859,-0.111818999052048,WAGfree Food,3,4.0,1
426,food,POINT (-0.22488 51.57662),zMSvMuUxpxtwLvX7XhoUXg,51.57662,-0.22488,Millies Cookies,3,4.0,1
427,food,POINT (0.01134 51.56867),nJA-5mA9yvHF55M-cwWVRg,51.56867,0.01134,The Wild Goose Bakery,4,4.5,2
428,food,POINT (-0.1281655 51.4166919),EZcIjen0oACdeOqaL2ig0g,51.4166919,-0.1281655,The Sweet house and friends,4,4.0,2
429,food,POINT (-0.138217 51.49208),yIACfv4FlV9_z49CtOATHw,51.49208,-0.138217,Gastronomica,1,4.0,28
430,food,POINT (-0.137195 51.510804),zjNP5FxKIsPCjMGHwAFS0A,51.510804,-0.137195,Rice Wine Shop,1,4.0,13
431,food,POINT (-0.0901469 51.5053378),kGu4kTShXzzOOuiSfzvjoQ,51.5053378,-0.0901469,Le Marche du Quartier,1,4.5,13
432,food,POINT (-0.144094 51.5464814),XiKr2TTb2AroLFC0JVomrw,51.5464814,-0.144094,Drinkers Paradise,1,4.5,7
433,food,POINT (-0.083858 51.529019),rnYUBGkIIQ4BFryMFKrhfg,51.529019,-0.083858,Yours Food Centre,1,5.0,6
434,food,POINT (-0.1419187 51.5467695),QTTZ9Mi10CBR1QE480IzFw,51.5467695,-0.1419187,Wine Cellar,1,4.5,4
435,food,POINT (-0.116222157602692 51.4633684110494),7b3GuHhDcLji3mTHfa3XOw,51.4633684110494,-0.116222157602692,London Beer Lab,1,4.5,4
436,food,POINT (-0.0674991251690953 51.5071353509837),nq974HzajZYtk3zpSMNctg,51.5071353509837,-0.0674991251690953,Cape Bar,1,2.5,3
437,food,POINT (-0.25562 51.50368),0e9josJue4teJZY2mdMQIg,51.50368,-0.25562,Vintage Wine Gifts,1,2.0,3
438,food,POINT (-0.175920724868774 51.4604379998153),mlMVC2wujWGbjM6iAUyy6Q,51.4604379998153,-0.175920724868774,Wine World,1,3.5,2
439,food,POINT (-0.189533 51.449414),br_IAb4lxbRHhYenubOCzA,51.449414,-0.189533,Liquor City,1,4.0,1
440,food,POINT (-0.1874671 51.5112575),9T2MoJpE8VTG3CzDYkir0A,51.5112575,-0.1874671,Queensway Food & Wine,1,3.0,1
441,food,POINT (-0.2145636 51.4031788),n1NSw_IWDvsL9c_905b5yA,51.4031788,-0.2145636,Mini Mart,1,5.0,1
442,food,POINT (-0.07158826179508419 51.5186246273111),hYLmuH7xszrOA5-O9c8aCA,51.5186246273111,-0.0715882617950842,Kill the cat,1,5.0,1
443,food,POINT (-0.1912776 51.5488208),Y4gqStFRCyAFjVUuLm61Cg,51.5488208,-0.1912776,Oddbins,1,4.0,1
444,food,POINT (-0.1755803 51.6332361),ZxBhtQE12yK2Tfi4qAx9fw,51.6332361,-0.1755803,Stonewines,1,4.0,1
445,food,POINT (-0.0884267 51.4737746),g-XNjmXhUXudw_kBRREY2g,51.4737746,-0.0884267,Nisa Today's,1,4.0,1
446,food,POINT (-0.074766 51.458634),3ZsiteZOJdR-AkZY8bRgQQ,51.458634,-0.074766,Oddbins - East Dulwich,1,5.0,1
447,food,POINT (-0.2274912 51.4974504),1HV9DsdN88pSw5hlcjv4Rg,51.4974504,-0.2274912,Tipsy Toad,1,5.0,1
448,food,POINT (-0.1902261 51.4588047),ttzRaROxZMKan1j4TodfoA,51.4588047,-0.1902261,Best One,1,2.0,1
449,food,POINT (-0.126178 51.4386864),AltgTLi7Rp4Wph659Fr9AQ,51.4386864,-0.126178,Hardy's Wine,1,3.0,1
450,food,POINT (-0.117698 51.53525),pxGAojqclUG5QQhqORZKiA,51.53525,-0.117698,AT.s Food and Wine,1,4.0,1
451,food,POINT (-0.1965791 51.554998),W3-rrg53v91qSqkCW8Eeyg,51.554998,-0.1965791,West Hampstead Food & Wine,1,3.0,1
452,food,POINT (-0.190844 51.489802),kTG8Lkusax-jrL9pKFYETA,51.489802,-0.190844,Krystals Express,1,5.0,1
453,food,POINT (-0.07374913059448431 51.4866656709079),B-8nKsa-8SbFgI0-VlQZ7Q,51.4866656709079,-0.0737491305944843,Arin Wines,1,5.0,1
454,food,POINT (-0.1236965 51.5101779),UZ_1yXW-aji5so1VKdnksQ,51.5101779,-0.1236965,BeBelge,1,5.0,1
455,food,POINT (-0.126667 51.417123),6YqlLwvO-9EG8iNb4a73aQ,51.417123,-0.126667,Best Fried Chicken,1,4.0,1
456,food,POINT (-0.034224 51.524231),x-Aw8OBnVqcaYo523OlTlA,51.524231,-0.034224,Nisa Retail,1,4.0,1
457,food,POINT (-0.1168644 51.5594352),YJQAYNc5vjq-TjlcD7DlGQ,51.5594352,-0.1168644,Holloway Food Centre,1,3.0,1
458,food,POINT (-0.07267560000000001 51.5837955),2SMfc3j3iNnR_SyRKbPgYw,51.5837955,-0.0726756,Fair Deal Supermarket,1,5.0,1
459,food,POINT (-0.127548871770955 51.524230246628),SBTpLzdWq8ynFBRFGW5cYQ,51.524230246628,-0.127548871770955,Portland Food And Wine,1,3.0,1
460,food,POINT (-0.0909365332063361 51.5051427191678),U-Sz3hVjbZ8eaNeKGpZU_A,51.5051427191678,-0.0909365332063361,Borough Market,2,4.5,1496
461,food,POINT (-0.074299 51.5196695),m3vdBGC0X94sG_5pglDcjQ,51.5196695,-0.074299,St. John Bread & Wine,2,4.0,122
462,food,POINT (-0.0898341 51.505406),aywIyiNMxy4nbBabMGK1Vw,51.505406,-0.0898341,Bedales of Borough Market,2,4.0,42
463,food,POINT (-0.124989295739738 51.5327386594665),9K-A7wHxB-z3n5h-P_mYFA,51.5327386594665,-0.124989295739738,Vinoteca Kings Cross,2,4.0,26
464,food,POINT (-0.133083 51.512672),_lt9jjFvRV6cSvzuo2j98w,51.512672,-0.133083,Gerry's,2,4.5,26
465,food,POINT (-0.0800297 51.5260433),_rBIXmSQ4PpRfikBh1YE9Q,51.5260433,-0.0800297,Bedroom Bar,2,3.5,20
466,food,POINT (-0.071380466511045 51.5072483143196),xfF9mK-mG8VN2OVKJm_EMw,51.5072483143196,-0.071380466511045,Kilikya's,2,3.5,19
467,food,POINT (-0.1312426 51.5148967),KznG53eW4n5DIBjzU2twjw,51.5148967,-0.1312426,Milroys Of Soho,2,4.5,16
468,food,POINT (-0.0982715 51.5560863),HvlddLwTH9lMk3GqvZfvdw,51.5560863,-0.0982715,Highbury Vintners,2,4.5,16
469,food,POINT (-0.206555083681268 51.5179338237067),07pOO0t1pNovNVOdAAYCUw,51.5179338237067,-0.206555083681268,R.Garcia And Sons,2,4.5,13
470,food,POINT (-0.13748200237751 51.4984817504883),sSjQl1wulo6X8-yWosTWxA,51.4984817504883,-0.13748200237751,Bistro 51,2,4.5,12
471,food,POINT (-0.164456 51.5540721),biJZD-gqBEN-J1x1legG_A,51.5540721,-0.164456,Giacobazzi's Delicatessen,2,5.0,10
472,food,POINT (-0.044551770701975 51.553392573536),omoZrxChc_FbsXZYdCGLrg,51.553392573536,-0.044551770701975,L'epicerie 56,2,4.5,10
473,food,POINT (-0.0753481 51.5196407),dYm3kJpM6rbAhZ55b2DVGw,51.5196407,-0.0753481,Bedales at Spitalfields Market,2,3.5,9
474,food,POINT (-0.09152 51.50571),Us8xF9DwFM7VlhqA77CG9w,51.50571,-0.09152,Laithwaites Wine,2,4.0,8
475,food,POINT (-0.0416056418030166 51.5319227267956),U8-QmWEu9Iig_SIXo2UGGA,51.5319227267956,-0.0416056418030166,East London Liquor Company,2,4.5,8
476,food,POINT (-0.090471 51.5062237),TgzQ2DZR4eu8pxqpIpirkg,51.5062237,-0.090471,Bompas & Parr's Alcoholic Architecture,2,3.5,8
477,food,POINT (-0.09074 51.505425),TQT_7CEvNzabug-xC7QkwQ,51.505425,-0.09074,Utobeer,2,4.0,8
478,food,POINT (-0.2125468 51.4600143),ekSSMnsc33y80yKEms2m4Q,51.4600143,-0.2125468,The Beer Boutique,2,5.0,7
479,food,POINT (-0.127982 51.548507),nzr5OukDr7smq1IKvfvTQw,51.548507,-0.127982,Kris Wines,2,4.5,6
480,food,POINT (-0.1306687 51.5502076),HXCJ3i8F3Rb6febYeo7Tcg,51.5502076,-0.1306687,Salvino,2,4.5,6
481,food,POINT (-0.1664277 51.5142772),XkNMH1tI3jnattLA2GHfWg,51.5142772,-0.1664277,Abasto,2,4.0,6
482,food,POINT (-0.214318 51.475189),KfO6YUMRvJ8lYKqd8jiSvQ,51.475189,-0.214318,DR.iNK of Fulham,2,4.0,6
483,food,POINT (-0.17883342325168 51.525870932355),ppiXAGeQIixtJV9ra104_w,51.525870932355,-0.17883342325168,The Winery,2,4.0,5
484,food,POINT (-0.0444847 51.5374853),jud6YkEQSK1KtBqb8Nuc7w,51.5374853,-0.0444847,Bottle Apostle,2,4.0,5
485,food,POINT (-0.0775363 51.5234454),u_0xoa3i4LmGV69pKtTdpw,51.5234454,-0.0775363,Majestic Wine Warehouses,2,3.5,5
486,food,POINT (-0.126955243177165 51.5120030448939),pjrDiSqCPhTMD3umChEfeQ,51.5120030448939,-0.126955243177165,Taylor Walker,2,3.5,5
487,food,POINT (-0.07460410000000001 51.5032007),-5vMSZVGgdcpklcSe4iPKQ,51.5032007,-0.0746041,The Dean Swift,2,4.0,5
488,food,POINT (-0.076713 51.510404),czoQW3xjiu6MAMvUl6r4iQ,51.510404,-0.076713,Wine Library,2,3.5,5
489,food,POINT (-0.1924673 51.4916766),Q8hvDhsZCxag1p8Ck48u0A,51.4916766,-0.1924673,Oddbins,2,4.0,5
490,food,POINT (-0.07935719822022 51.562077832707),m9uk2DTtknaLHhw-vUmGgQ,51.562077832707,-0.07935719822022,Clissold Wines,2,3.5,4
491,food,POINT (-0.147464 51.496438),5P943AGRRCQmc_HBToctKg,51.496438,-0.147464,Olivino,2,4.5,4
492,food,POINT (-0.1118072 51.4626205),GuVx0eqzAfVWrZSJsiLESA,51.4626205,-0.1118072,Champagne + Fromage,2,4.0,4
493,food,POINT (-0.20657 51.507156),QPAhDGOc0V72RLQeHyw7Hg,51.507156,-0.20657,Nicolas,2,4.5,4
494,food,POINT (-0.108894 51.549797),HqWXnhsf5-0E2Q5rA1RKdQ,51.549797,-0.108894,Provisions Wine and Cheese,2,5.0,3
495,food,POINT (-0.1077855 51.5005745),BEPmE29f-0lzKD-wqaC2EQ,51.5005745,-0.1077855,World Wines,2,3.0,3
496,food,POINT (-0.07490579999999999 51.4581572),Z5SL8x9OQeK6r6_gKAWMwg,51.4581572,-0.0749058,Boss Man Wines,2,4.0,3
497,food,POINT (-0.0069301575422287 51.5644012886983),PfWmMXS5PxDyZS_Q9G44Yg,51.5644012886983,-0.0069301575422287,Yardarm,2,5.0,3
498,food,POINT (-0.2050523 51.5148714),TOqbxvnR7Zjw58vMBCEcIA,51.5148714,-0.2050523,Jeroboams,2,4.5,3
499,food,POINT (-0.2088177 51.4693444),72YSg9QoCtt9jd5TVb9lPw,51.4693444,-0.2088177,Majestic Wine Warehouse,2,3.5,3
500,food,POINT (-0.1408489 51.5516517),94BgpFI6TZ9i2SNF3E-7XA,51.5516517,-0.1408489,Clapton Craft,2,4.5,3
501,food,POINT (-0.196741707623005 51.5520051159052),WUCoS4dRfOcsuG8lutPYnw,51.5520051159052,-0.196741707623005,Vini Vivi,2,5.0,3
502,food,POINT (-0.1977144 51.4733681),ZR11HL_OiDZKAA7Q54zbKg,51.4733681,-0.1977144,Friarwood Fine Wines,2,4.5,3
503,food,POINT (-0.1470375 51.5774599),xW6ZxEyk8bif6XwDW7vdXA,51.5774599,-0.1470375,Deli & Delights,2,4.0,3
504,food,POINT (-0.081361904093446 51.49820436503),gaAYNQJCI_AmxVf3V8WfCg,51.49820436503,-0.081361904093446,Cave,2,3.5,3
505,food,POINT (-0.143392303704786 51.5211617969844),ryCbqgGl-IxKyPEWwFTSZA,51.5211617969844,-0.143392303704786,Nicolas,2,4.5,3
506,food,POINT (-0.123361705582228 51.5770451472883),ioo0_4zCPICARtkugQ2oag,51.5770451472883,-0.123361705582228,Oddbins,2,3.5,3
507,food,POINT (-0.08254032642308171 51.5246708257821),HlnANV_O8h9KnVwghoM4ew,51.5246708257821,-0.0825403264230817,Passione Vino,2,5.0,2
508,food,POINT (-0.205174 51.515156),jC5t3cX64GsQsma0OVBtxQ,51.515156,-0.205174,Oddbins,2,4.5,2
509,food,POINT (-0.151157 51.4940146),-HNhSagLHiY7I9kM16G63g,51.4940146,-0.151157,Jeroboams,2,4.0,2
510,food,POINT (-0.1520934 51.5099824),deOi0SjwosOeOHnIikE_yg,51.5099824,-0.1520934,Majestic Wine Warehouse,2,5.0,2
511,food,POINT (-0.1132681 51.4617538),pd-QXOTgrkqiZEai0wwgqg,51.4617538,-0.1132681,Market Row Wines,2,5.0,2
512,food,POINT (-0.2039167 51.4764595),lnlp28TshekNS_Ayu34tHg,51.4764595,-0.2039167,ExCellar Wine,2,2.5,2
513,food,POINT (-0.1259589 51.5811844),eCRW8jMtKcVEDoJyT28L2A,51.5811844,-0.1259589,Bottle Apostle,2,3.5,2
514,food,POINT (-0.198389 51.418931),QUh6qipQp4esX_PCMBMyCw,51.418931,-0.198389,Majestic Wine Warehouses,2,3.0,2
515,food,POINT (-0.0614117 51.5368844),9p2Z-4P-GIaYAM_s7ddjkQ,51.5368844,-0.0614117,Broadway Wines,2,3.0,2
516,food,POINT (-0.14902700483799 51.5783386230469),zeBco2wW0hqOT5YyS-v9Xg,51.5783386230469,-0.14902700483799,Hops 'N' Pops,2,1.5,2
517,food,POINT (-0.1040443 51.5358188),29R5JkQg8ZNdUi6MUnsEJQ,51.5358188,-0.1040443,Spirited Wines,2,5.0,2
518,food,POINT (-0.061624001711607 51.545711517334),MPgY2LwgjJdSV3zRKnT7Hg,51.545711517334,-0.061624001711607,Borough Wines,2,2.5,2
519,food,POINT (-0.1461192 51.5902409),ou_jdxUo0fwkgBO60ZihKw,51.5902409,-0.1461192,Prohibition Wines,2,4.5,2
520,food,POINT (-0.15328492087384 51.544108966636),YuRaDUWTntkmgSbSvVW-Cg,51.544108966636,-0.15328492087384,Quick Stop,2,3.5,2
521,food,POINT (-0.0816726 51.526875),IjbJor286OXrUWdpaIKjTg,51.526875,-0.0816726,Amathus Shoreditch,2,5.0,1
522,food,POINT (-0.06314989999999999 51.5629249),cGM7YuH4eeHRtD0SFPJWWQ,51.5629249,-0.0631499,Zaga Supermarket,2,5.0,1
523,food,POINT (0.012438 51.5692631),UPSNZUDseiXp_yIsYCwzoQ,51.5692631,0.012438,Wine to Go,2,4.0,1
524,food,POINT (-0.1117493 51.4796555),5eO34OMO2KPcHJWuUXrwVw,51.4796555,-0.1117493,Ever Fresh Food & Wine,2,5.0,1
525,food,POINT (-0.1859371 51.5301208),Ai5FQsNhb1SUSVf9m8w1iQ,51.5301208,-0.1859371,Wine Rack,2,4.0,1
526,food,POINT (-0.1669923 51.6464043),rctHHtKTPjjyymfeEvQqHQ,51.6464043,-0.1669923,Majestic Wine Warehouses,2,4.0,1
527,food,POINT (-0.1672368 51.4912421),sbDaiptghvS0xxgY9kUGaA,51.4912421,-0.1672368,Haynes Hanson & Clark,2,5.0,1
528,food,POINT (-0.07527399999999999 51.54883),7ZUmS8JeSzb3EQmsZWW74g,51.54883,-0.075274,Wine Cellar,2,4.0,1
529,food,POINT (-0.15176089951015 51.547709051678),SUQNwTSvtlsRMISZrQ7OCw,51.547709051678,-0.15176089951015,S & S Wines & Spirits Store,2,3.0,1
530,food,POINT (-0.09421 51.34821),yfxalabAtCubOGaBrTX-wQ,51.34821,-0.09421,Wine Cellar,2,4.0,1
531,food,POINT (-0.210031047463417 51.5213609127121),txjyX7Icoe3EgsCvlR8D9Q,51.5213609127121,-0.210031047463417,Salumeria,2,4.0,1
532,food,POINT (-0.0801501715423458 51.5324369252592),kTM5IeQxpVatH96FfVK_Yg,51.5324369252592,-0.0801501715423458,7 Seasons,2,4.0,1
533,food,POINT (-0.0267761573195457 51.5339908874452),otJ_VwK4iQC7zpCXiQUsWQ,51.5339908874452,-0.0267761573195457,Roman Food and Wine,2,3.0,1
534,food,POINT (-0.1712835 51.5337807),UQro1hMqxfApAvcXkFLttg,51.5337807,-0.1712835,Nicolas,2,4.0,1
535,food,POINT (-0.176826 51.514754),Hq4G2TGCPw2mtrifpA_46A,51.514754,-0.176826,Cheers Wine Shop,2,3.0,1
536,food,POINT (-0.0105252 51.4790719),lYsrbMVBgj37UztpUICwXQ,51.4790719,-0.0105252,Bottoms Up,2,4.0,1
537,food,POINT (-0.166825 51.497504),zkJIo-AIlcJOwQ2KwL0RDw,51.497504,-0.166825,Nicolas,2,5.0,1
538,food,POINT (-0.199215 51.507646),RwqctzwEGFQzFd_Q5Lujag,51.507646,-0.199215,Majestic Wine Warehouses,2,5.0,1
539,food,POINT (-0.235913 51.290305),gI0lBNWfRzSROxssi2XgWg,51.290305,-0.235913,Wine Rack,2,4.0,1
540,food,POINT (-0.09009200000000001 51.505092),0rYF3Uznr9B-L29PHoDLLQ,51.505092,-0.090092,Borough Wines,2,4.0,1
541,food,POINT (-0.179036835660307 51.537770793642),7jEemF4YjUSQLz5msEthTA,51.537770793642,-0.179036835660307,Majestic Wine,2,5.0,1
542,food,POINT (-0.1110998 51.5414199),Ej-ZtRQdUoKJupi-WST5ZQ,51.5414199,-0.1110998,Barnsbury Square,2,4.0,1
543,food,POINT (-0.08355310000000001 51.526784),KKei6wGWbI6mehZyQCrmvA,51.526784,-0.0835531,Efes Supermarket,2,1.0,1
544,food,POINT (-0.0692874 51.4696714),vBKJIvFumGvejMM3HTwHxQ,51.4696714,-0.0692874,Grove Off Licence,2,5.0,1
545,food,POINT (-0.2488 51.4876213),2BBEUa6nzit7L7P9a6CL6A,51.4876213,-0.2488,Fuller’s Brewery,2,4.0,1
546,food,POINT (-0.1919259 51.5519846),22ANR9s3O4o5LUeReLjkWg,51.5519846,-0.1919259,Thresher Wines Group,2,4.0,1
547,food,POINT (-0.1668184 51.4599136),72yj9W5pV-jjWHEcN2MIzg,51.4599136,-0.1668184,Oddbins,2,3.0,1
548,food,POINT (-0.1123349 51.4635158),ALKXuPhXOg35ftQjzNUW-w,51.4635158,-0.1123349,The New Zealand Cellar,2,4.0,1
549,food,POINT (-0.038857 51.531178),Ogg0Dd5-B1VOkDaVno7SUQ,51.531178,-0.038857,Symposium,2,5.0,1
550,food,POINT (-0.2197448 51.3045761),UWqs-W5Tc54cJs072UUxJQ,51.3045761,-0.2197448,Londis Burgh Heath,2,3.0,1
551,food,POINT (-0.167505784130867 51.4284506809685),tClt-ezzFeEzTDSPqvFktQ,51.4284506809685,-0.167505784130867,Craft Tooting,2,4.0,1
552,food,POINT (-0.138357858761537 51.5083667842501),eyFzHGBlLjMWmsXFdMrA3w,51.5083667842501,-0.138357858761537,Fortnum & Mason,3,4.5,393
553,food,POINT (-0.1380641 51.5055029),XhJp-NYIwxta3Cxj7AQ3UA,51.5055029,-0.1380641,Berry Bros. & Rudd,3,4.5,25
554,food,POINT (-0.103275775909424 51.5425851928477),JOf9lEwtyDSLAm0guZIXvA,51.5425851928477,-0.103275775909424,The Sampler,3,4.0,17
555,food,POINT (-0.1546425 51.5189522),IDJGBbc1aDi2lB2H4HQlRg,51.5189522,-0.1546425,Cadenhead's Whisky Shop and Tasting Room,3,4.5,16
556,food,POINT (-0.1316933 51.5131655),k78Qdo1bP-sVhqpmnbkXUQ,51.5131655,-0.1316933,The Vintage House,3,4.0,12
557,food,POINT (0.00010505710704 51.483730911439),FuWWDPH9ea-GQ7FQmBRhmw,51.483730911439,0.00010505710704,Theatre of Wine,3,4.0,9
558,food,POINT (-0.093627 51.512596),JqCq3vd0pHAwc1iRukp7Pg,51.512596,-0.093627,Planet of the Grapes,3,4.5,8
559,food,POINT (-0.152758631291803 51.5143857863328),ULHIay5oMY7PFcjOMGLwMw,51.5143857863328,-0.152758631291803,Wine Shop At Selfridges,3,4.0,8
560,food,POINT (-0.127153284668691 51.5171180366964),TNZTKL-Jcr5hgJJsi3HyVQ,51.5171180366964,-0.127153284668691,Royal Mile Whiskies,3,4.5,7
561,food,POINT (-0.20669656943908 51.507052035006),OlYdRxwGoKj1u9sjQTeq-w,51.507052035006,-0.20669656943908,Jeroboams,3,3.5,5
562,food,POINT (-0.1664875 51.4601269),2R2sCOn6Qw2zFTDcbDQSQQ,51.4601269,-0.1664875,Philglas & Swiggot,3,4.0,5
563,food,POINT (-0.0997138023376465 51.5147986178906),quFRPNWZVS_mz2NJe4sWiA,51.5147986178906,-0.0997138023376465,The Whisky Shop,3,2.5,5
564,food,POINT (-0.1788549 51.5560646),IUHC-kIQ2mMHGpTuLIkveA,51.5560646,-0.1788549,Jeroboams,3,4.5,3
565,food,POINT (-0.0524156 51.5519791),6bmQkiho2kUKCJHELCBKFA,51.5519791,-0.0524156,Clapton Craft,3,4.5,2
566,food,POINT (-0.1822732 51.4731944),IUy-8WxPlyYtTSq8Ng6GJA,51.4731944,-0.1822732,Wimbledon Wine Cellar,3,4.5,2
567,food,POINT (-0.0838264 51.5128424),fM-R6tqtCl7QoGl-di-HZw,51.5128424,-0.0838264,Amathus Drinks,3,3.0,2
568,food,POINT (-0.1396804 51.4547289),xSq2igaB0rODToQU0SY2OQ,51.4547289,-0.1396804,Bottle Apostle,3,1.0,1
569,food,POINT (-0.2054655 51.5356422),YMzZkcYSH58MOwc13lKkpg,51.5356422,-0.2054655,Salusbury Winestore,3,3.0,1
570,food,POINT (-0.21636197343769 51.423455607645),GZ2Vr28NTiAID_B_4CG8-Q,51.423455607645,-0.21636197343769,Nicolas,3,4.0,1
571,food,POINT (-0.0142593667953861 51.4775012021905),IMsnXQK5A0-MaHJZ7ny-AQ,51.4775012021905,-0.0142593667953861,Davy's Wine Shop,3,4.0,1
572,food,POINT (-0.110060997307301 51.5257301330566),8ntgZr6J6Ose7E1_GGRu7g,51.5257301330566,-0.110060997307301,Rosebery Wines,3,1.0,1
573,food,POINT (-0.158436 51.515115),pxrupYfFSIYOfeg51hM_dg,51.515115,-0.158436,Philglas & Swiggot,4,4.0,5
574,food,POINT (-0.1384809 51.4972206),83FqT6wLMiZiK5oWq9qVWw,51.4972206,-0.1384809,M Wine Store,4,4.5,3
575,food,POINT (-0.0578849582158414 51.5033222955571),kyWvr1Qn1l_k7ClpJQRKsg,51.5033222955571,-0.0578849582158414,Captain Kidd,1,4.0,33
576,food,POINT (-0.133484 51.514855),7EWpg2uikx8mXGGSFSOp-Q,51.514855,-0.133484,Nellie Dean,1,3.5,19
577,food,POINT (-0.06969451904296881 51.495492221304),JqFCQVMvWVZGIrZkDaTEug,51.495492221304,-0.0696945190429688,The Kernel Brewery,1,4.5,15
578,food,POINT (-0.250589913657242 51.4876072101189),ryTvuNkpmFY04tW9Dwu39Q,51.4876072101189,-0.250589913657242,Fullers Griffin Brewery,1,4.5,14
579,food,POINT (-0.07718797739480079 51.5006859055592),S4NUjhturYQu-ESgXDbHMA,51.5006859055592,-0.0771879773948008,Southwark Brewing,1,4.0,8
580,food,POINT (-0.115396756061212 51.5430165303057),uMaBDR5avhamA-3NmbgKJg,51.5430165303057,-0.115396756061212,Hammerton Brewery,1,4.0,5
581,food,POINT (-0.05405 51.4890594),pepCDG3786EeddZfR79NZQ,51.4890594,-0.05405,Fourpure,1,4.5,5
582,food,POINT (-0.249853 51.487685),XWMgWsH1mpewILYA5py97w,51.487685,-0.249853,The Griffin Brewery,1,5.0,5
583,food,POINT (-0.1847287 51.4325056),QwyOsqZfahF2sSsLYfTalw,51.4325056,-0.1847287,By The Horns Brewery Taproom,1,4.5,4
584,food,POINT (-0.116222157602692 51.4633684110494),7b3GuHhDcLji3mTHfa3XOw,51.4633684110494,-0.116222157602692,London Beer Lab,1,4.5,4
585,food,POINT (-0.2689583 51.4910163),SRiLWKGylr26IZhWiED0aw,51.4910163,-0.2689583,Rhythm & Brews,1,5.0,3
586,food,POINT (-0.0702895 51.4694264),J2zYIRBO7LhjFOqndqvcDg,51.4694264,-0.0702895,Brick Brewery,1,4.5,3
587,food,POINT (-0.162798002362251 51.4460830688477),Y9LCAcK0pTWZVA_b5CosOA,51.4460830688477,-0.162798002362251,Belleville Brewing Company,1,5.0,1
588,food,POINT (-0.00747764476294107 51.5835537249964),Jf9kCiMIq4HF-oMmNkteIw,51.5835537249964,-0.00747764476294107,Wild Card Brewery,1,4.0,1
589,food,POINT (-0.058385 51.5383792),I975MEewq2HrxRTbtiQzlw,51.5383792,-0.058385,London Fields Brewery Tap Room,1,4.0,1
590,food,POINT (-0.0223574614793165 51.5426847134197),etN_O5Hbz8g-oNUJDE0eJg,51.5426847134197,-0.0223574614793165,Crate Brewery,2,4.0,56
591,food,POINT (-0.1785851 51.5560201),aA79oNXSvGKc0xfTTp0yrA,51.5560201,-0.1785851,The Horseshoe,2,3.5,34
592,food,POINT (-0.146872169040243 51.5468318969433),KuwUTzRwJDT2XBfowo6hTQ,51.5468318969433,-0.146872169040243,Camden Town Brewery,2,4.0,34
593,food,POINT (0.00837204897244259 51.4894147039283),jddBDymNvMJRPYaLU7jl4A,51.4894147039283,0.00837204897244259,Meantime Brewing Company,2,4.5,27
594,food,POINT (-0.0723538035598414 51.5215455155579),_8qC8uvrtmnBifGVLmkL_g,51.5215455155579,-0.0723538035598414,The Old Truman Brewery,2,4.5,20
595,food,POINT (-0.105660926013905 51.5320382406156),F-LW_t3vJlAjY9ehw-1Cag,51.5320382406156,-0.105660926013905,Brewhouse and Kitchen,2,4.0,16
596,food,POINT (-0.0587542 51.5396999),BdgvJOOsGuemmq8NtL9Ggw,51.5396999,-0.0587542,London Fields Brewery,2,4.0,16
597,food,POINT (-0.238991086222721 51.4755114229791),EMNUnaW-dnQJ_q_KeywfTw,51.4755114229791,-0.238991086222721,Red Lion,2,4.0,12
598,food,POINT (-0.176133 51.47006),nYR3GySUee5o0PqRwF8DtA,51.47006,-0.176133,Sambrook's Brewery,2,4.5,11
599,food,POINT (-0.056875995962955 51.590922959693),pbroRuYUQb8iqEsQFhVTUA,51.590922959693,-0.056875995962955,Beavertown Brewery,2,4.5,9
600,food,POINT (-0.072001 51.497433),dAx5fK15CCG6QD-HpEPnaA,51.497433,-0.072001,Brew By Numbers,2,4.0,8
601,food,POINT (-0.08072 51.510056),FOJBM--560JTgve3mK1ybw,51.510056,-0.08072,Brewdog Tower Hill,2,4.5,8
602,food,POINT (-0.0566855558197403 51.5298573197089),R1TbO3etBuUL3xu82I0kKQ,51.5298573197089,-0.0566855558197403,Redchurch Brewery,2,4.0,7
603,food,POINT (-0.0734361 51.4986968),-wqjBaRyqvZMMS5vboFRhA,51.4986968,-0.0734361,Anspach & Hobday,2,4.0,7
604,food,POINT (-0.26178 51.491855),lS_a8xa0ez6Sr-ImxzhO0g,51.491855,-0.26178,Lamb Brewery,2,4.5,6
605,food,POINT (-0.0596360005438328 51.4916648864746),XZHReY18GlLDNlMbKHy48Q,51.4916648864746,-0.0596360005438328,Partizan Brewery,2,4.0,5
606,food,POINT (-0.0828436224537224 51.4189848208253),iyW03AO_iHKBFJ3BALSJzg,51.4189848208253,-0.0828436224537224,Four Hundred Rabbits,2,3.5,4
607,food,POINT (-0.070964 51.497405),aS-kEnVo9-MG8HjvxeLwBw,51.497405,-0.070964,Ubrew,2,4.0,4
608,food,POINT (-0.100706 51.4513885),liyuBGxXP17DXG7F79XT9Q,51.4513885,-0.100706,Canopy Beer Company,2,3.5,3
609,food,POINT (-0.07659100000000001 51.503388),so1huLctHJtJyGLrPRyt9Q,51.503388,-0.076591,Bridge House Bar & Dining,2,3.5,2
610,food,POINT (-0.140275777801493 51.4746982566395),u2y8aND4YNjBDEVuzh8e5w,51.4746982566395,-0.140275777801493,Mondo Brewing Company,2,4.5,2
611,food,POINT (-0.08563753217458719 51.5221386246037),2vFP8Ui8Pc1C5t4mjErOig,51.5221386246037,-0.0856375321745872,Long Arm Pub & Brewery,2,5.0,1
612,food,POINT (-0.003787 51.344674),Bi3Gmggj_rFadrtK3CN0yw,51.344674,-0.003787,The Cronx Bar,2,3.0,1
613,food,POINT (-0.075862 51.535047),sSo9zs3gdKNTHrD7gLrdPA,51.535047,-0.075862,Hackney Brewery,2,4.0,1
614,food,POINT (-0.109565062798567 51.463509093176),C_KuyXljRvlgfU2zo1gW3w,51.463509093176,-0.109565062798567,Brixton Brewery,2,2.0,1
615,food,POINT (-0.1008049 51.5189517),tyxml_JT5NKQPa_ATrajRA,51.5189517,-0.1008049,St Barts Brewery,3,4.5,6
616,food,POINT (-0.13232 51.51268),-d_5w-b7cjo9f-M-f_57pA,51.51268,-0.13232,Biju Bubble Tea Room,1,4.0,128
617,food,POINT (-0.133645996451378 51.511962890625),eJ6G7gSWv7JUtMs4KDWdQQ,51.511962890625,-0.133645996451378,Bubbleology,1,3.5,84
618,food,POINT (-0.129037 51.511871),mFjEBAQ2y4AT9nrrNn-D-g,51.511871,-0.129037,Cuppacha Bubble Tea,1,4.0,72
619,food,POINT (-0.197596 51.510399),QzH386Ttt_GNjQBPYLADQw,51.510399,-0.197596,Bubbleology,1,3.5,36
620,food,POINT (-0.129037 51.511871),gmkxrQNzkFWCqpC0IO9Ygg,51.511871,-0.129037,Happy Lemon,1,3.5,24
621,food,POINT (-0.0765729 51.5234799),gFAluKQxU8mVq-MzcEikgQ,51.5234799,-0.0765729,Nosteagia,1,4.0,14
622,food,POINT (-0.145662688276085 51.5373482982208),s3hDH4jm9v9rDyzt4Sd2Rg,51.5373482982208,-0.145662688276085,Mooboo - Bubble Tea,1,4.0,13
623,food,POINT (-0.17439 51.494573),nOYtSW76HBkmqmI_mbfCVg,51.494573,-0.17439,Bubbleology,1,3.5,12
624,food,POINT (-0.0800114841471178 51.5261358500562),bM4i_JbpURfbJ6l_pIxMSQ,51.5261358500562,-0.0800114841471178,Chatime,1,4.5,11
625,food,POINT (-0.008397999999999999 51.543831),Gnl7Ir2cijVA1iPabV_OMw,51.543831,-0.008398,Bubbleology,1,4.0,6
626,food,POINT (-0.006359 51.544345),BWOhQKfARucMBBwf3C90Aw,51.544345,-0.006359,T4 Tea for U,1,4.5,6
627,food,POINT (-0.078434 51.509218),g0_YVFx2jCCQ_5LtnLAsPA,51.509218,-0.078434,Chatime,1,4.0,4
628,food,POINT (-0.1330991 51.5141645),6IW427m7Gc_aAWsdxSD0Xw,51.5141645,-0.1330991,BobaJam,1,5.0,4
629,food,POINT (-0.2506804 51.3988601),lK-utRMTKFb19XM9orS4rg,51.3988601,-0.2506804,Coffee Bubble,1,5.0,1
630,food,POINT (-0.1436024 51.5388706),TtCvSlmMNNzz0RlkpWFykg,51.5388706,-0.1436024,Bubbleology,1,5.0,1
631,food,POINT (-0.1039501 51.5359244),SiYcTcmjZkogL6hhm4NY1g,51.5359244,-0.1039501,Bubbleology,1,2.0,1
632,food,POINT (-0.124843 51.518548),iNGX9M45CIG-UybH72B2dg,51.518548,-0.124843,Coco Fresh Tea & Juice London,2,3.5,18
633,food,POINT (-0.1597774 51.501788),AWLFDyjPlViuFcuspx8DKw,51.501788,-0.1597774,Bubbleology,2,3.5,8
634,food,POINT (-0.13104 51.512226),JghqYOy0lzIyrqd3KwPBFQ,51.512226,-0.13104,The Shan State,2,2.5,5
635,food,POINT (-0.131521999835968 51.512451171875),eINyFVlU9McjEtiUyO6DeA,51.512451171875,-0.131521999835968,CoCo Fresh Tea & Juice Soho,2,4.5,4
636,food,POINT (-0.021589 51.48946),L_uvaIdseXcAa4BD5gsknQ,51.48946,-0.021589,Green Orchard,2,2.5,3
637,food,POINT (-0.141117006540298 51.5475730895996),IDH_axJK2uI99N5-_PHl5A,51.5475730895996,-0.141117006540298,Phoenicia - Mediterranean Food Hall,1,4.0,23
638,food,POINT (-0.0510704 51.413286),KcXIK__u1GInd077KXTm6w,51.413286,-0.0510704,Penge Food Centre,1,4.5,3
639,food,POINT (-0.1111332 51.4984624),P1BnpOoDOZCwtObvtI8w1g,51.4984624,-0.1111332,Costcutter,1,3.5,2
640,food,POINT (-0.23417 51.506658),7nswtJHGAIBxQuLSssRLJw,51.506658,-0.23417,Naama,1,4.5,2
641,food,POINT (-0.357667 51.450739),uo2D7J9grMNGhNZ2gFU-ww,51.450739,-0.357667,Ellis Fine Foods,1,5.0,1
642,food,POINT (-0.186031322746996 51.6458748465236),5yMdip5FlHXwn0u0xIejIg,51.6458748465236,-0.186031322746996,Moore & Sons Butchers,1,5.0,1
643,food,POINT (-0.158433392643929 51.5150425250173),dCKpRCo6k1rPjZABB4WgBQ,51.5150425250173,-0.158433392643929,Boxcar Butcher & Grill,2,4.5,16
644,food,POINT (-0.174037 51.494766),MBNN96eKz8i54UIVyfI_2g,51.494766,-0.174037,Brompton Food Market,2,4.5,9
645,food,POINT (-0.0613599 51.5369514),GZ7CdeHuoyfvB1VnPfEfYw,51.5369514,-0.0613599,Hill & Szrok,2,5.0,8
646,food,POINT (-0.0996359 51.580505),P4p205wppx1HZ2lGAtRMhA,51.580505,-0.0996359,Baldwins Butchers,2,5.0,6
647,food,POINT (-0.1664277 51.5142772),XkNMH1tI3jnattLA2GHfWg,51.5142772,-0.1664277,Abasto,2,4.0,6
648,food,POINT (-0.20547471961472 51.444702981538),R_Ei36Z0xNC_CV097q5chg,51.444702981538,-0.20547471961472,The Village Butchers,2,4.0,4
649,food,POINT (-0.07319440000000001 51.4984818),qORMGjRfN0tVN6vN2YtQYw,51.4984818,-0.0731944,O'shea's Butchers,2,4.5,3
650,food,POINT (-0.057842 51.504891),YtTR9uDNZ0LlRHcsXh3WlQ,51.504891,-0.057842,Hussey Butchers,2,3.5,3
651,food,POINT (-0.09138493068849129 51.5062980117458),VVghAJA5WjFVMUnnKcpQxQ,51.5062980117458,-0.0913849306884913,Cannon & Cannon Fine Foods,2,4.5,3
652,food,POINT (-0.2295131 51.5471615),BQOTNkyvQYfL986eKpJ9HA,51.5471615,-0.2295131,O'farrells Traditional Family Butchers,2,5.0,3
653,food,POINT (-0.2059081 51.5152474),WY_9SKlMEK9VyUDpid0LXQ,51.5152474,-0.2059081,Provenance,2,3.0,3
654,food,POINT (-0.026524 51.5834432),x2EHkbzMLk_2tBh8fJN9Gw,51.5834432,-0.026524,H R Parsons,2,5.0,3
655,food,POINT (-0.100499 51.519568),jpMrlHaBPLCFGi_theBlig,51.519568,-0.100499,Smithfield Market,2,4.5,3
656,food,POINT (-0.0514523 51.4887818),yhsNt-2LzxF-jK0D7gJEzA,51.4887818,-0.0514523,Ham and Cheese Co,2,4.5,3
657,food,POINT (-0.152090484925167 51.5908826889912),K16v8TAJaa_1yrCF8E7lqA,51.5908826889912,-0.152090484925167,Midhurst Butchers,2,4.5,2
658,food,POINT (-0.0694223460327521 51.4956602461492),HzcnTOiQd0l1ttJJ_Ap4jg,51.4956602461492,-0.0694223460327521,The Butchery,2,3.0,2
659,food,POINT (-0.2215843 51.4679413),9m3kzkamn8NW45TrXlwroA,51.4679413,-0.2215843,Parsons Nose,2,5.0,1
660,food,POINT (-0.240446 51.310006),E3PWIxdtAkkp02S8e3xkbg,51.310006,-0.240446,Buckleys Family Butchers & Delicatessen,2,4.0,1
661,food,POINT (-0.0574220716953278 51.6250822361924),3KMvDLjq5lCMQORW0pYAug,51.6250822361924,-0.0574220716953278,Meat-Inn,2,3.0,1
662,food,POINT (-0.0444647 51.5374186),LcrHcZj1tEQrwhJMPsBEjQ,51.5374186,-0.0444647,Ginger Pig,3,4.5,18
663,food,POINT (-0.1391811 51.5561757),AfTnMtbxUgEdljnsFYq_zw,51.5561757,-0.1391811,Meat NW5,3,4.0,5
664,food,POINT (-0.17341545292885 51.555088944127),wxfGeNQQ0J3j9mzIZG6Wig,51.555088944127,-0.17341545292885,The Hampstead Butcher & Providore,3,5.0,5
665,food,POINT (-0.009891981136263 51.477418710167),eJDt5JD38SO8pKL6_Ul5Zw,51.477418710167,-0.009891981136263,Drings Butchers,3,5.0,5
666,food,POINT (-0.1805764 51.4860359),wIsf2zttdMHK3PYRMYS37w,51.4860359,-0.1805764,Wyndham House Butchers,3,5.0,4
667,food,POINT (-0.105793 51.530987),vLLB59Qh2IHE5NN1XZyStw,51.530987,-0.105793,Turner & George,3,3.0,4
668,food,POINT (-0.0521553 51.4141181),_7Sn_eGr7d2lDmrZo-Cu1Q,51.4141181,-0.0521553,Murray Bros Butchers,3,5.0,1
669,food,POINT (-0.170991120813964 51.53358857053),HVfH72v8FqPCOEkQS0e_EA,51.53358857053,-0.170991120813964,Kent & Sons Butchers,4,4.5,5
670,food,POINT (-0.1623715 51.545806),DWSiXLaEk1r1NusxTA4VCw,51.545806,-0.1623715,Barrett,4,4.5,2
671,food,POINT (-0.2019582 51.6555326),F8CGboOtNddcHZsjc-3OxQ,51.6555326,-0.2019582,W T Parish,4,4.0,1
672,food,POINT (-0.13222007974201 51.4940143171),YNduANMPzIVE8CzBH7YjEQ,51.4940143171,-0.13222007974201,Regency Café,1,4.5,347
673,food,POINT (-0.13609727051977 51.515164726519),lkethHYEgAT3gE-09fLWag,51.515164726519,-0.13609727051977,Yumchaa Soho,1,4.0,153
674,food,POINT (-0.1444512 51.4980558),BjPq77aiaKZAVUHIu2S3gA,51.4980558,-0.1444512,The English Rose Cafe and Tea Shop,1,4.5,135
675,food,POINT (-0.13232 51.51268),-d_5w-b7cjo9f-M-f_57pA,51.51268,-0.13232,Biju Bubble Tea Room,1,4.0,128
676,food,POINT (-0.131236 51.513425),MzF9nlCdHZOaL5ocfY7QqQ,51.513425,-0.131236,Bar Italia,1,4.0,102
677,food,POINT (-0.0718118 51.5243997),zjqHfmPFsaeoA6yW8_QWgw,51.5243997,-0.0718118,Beigel Shop,1,4.0,93
678,food,POINT (-0.1928114 51.49944),8hz9UOfK0mIsAzs90vrN8Q,51.49944,-0.1928114,The Muffin Man Tea Shop,1,4.0,89
679,food,POINT (-0.0812485 51.4993814),-22PaX8rQyh0ZQrdCiDz4A,51.4993814,-0.0812485,Fuckoffee,1,4.0,68
680,food,POINT (-0.138923 51.512954),dyAE0ROgElNHbRa-y3CfFw,51.512954,-0.138923,Sacred,1,4.0,68
681,food,POINT (-0.0544517132455334 51.5298488421438),H3Adfv3wnboWmv5-mOBRQw,51.5298488421438,-0.0544517132455334,The Gallery Café,1,3.5,66
682,food,POINT (-0.140738025145255 51.5192470995905),PYwzVOvFIjwCMNYV5upPwg,51.5192470995905,-0.140738025145255,Attendant,1,4.5,66
683,food,POINT (-0.1494624 51.5142107),D3S8aol0T8Sr9hqM7fgrvg,51.5142107,-0.1494624,Pret A Manger,1,4.0,64
684,food,POINT (-0.131473 51.511873),nAwpCaUpBIneyj1Vg0Zlcw,51.511873,-0.131473,Candy Café,1,4.0,62
685,food,POINT (-0.0838136672973633 51.52954503532),bgNNAcV-GYqPXkYcHmZNCg,51.52954503532,-0.0838136672973633,Curious Yellow Kafé,1,4.5,60
686,food,POINT (-0.140076 51.5077941),p-OjK2_lL7DyQtZ1GwkAsg,51.5077941,-0.140076,Pret A Manger,1,4.5,58
687,food,POINT (-0.099254 51.519455),cb68xEFl8p418CPBZvbewQ,51.519455,-0.099254,Dose,1,4.5,57
688,food,POINT (-0.126556 51.5143765),Lr5_1a2rIyzA7W-6UPKS-A,51.5143765,-0.126556,26 Grains,1,4.5,56
689,food,POINT (-0.0632059606602997 51.52651439251),2gdM4haM5zyyOhj_IGGoFA,51.52651439251,-0.0632059606602997,Cafe 338,1,4.0,56
690,food,POINT (-0.126389201213277 51.525250540481),tHKiDGayBq4RD0oL-DutCg,51.525250540481,-0.126389201213277,Bloomsbury Coffee House,1,4.0,54
691,food,POINT (-0.11130307161269 51.501533914011),puXO6DCuNOyopFw6Ykgtzw,51.501533914011,-0.11130307161269,Marie's Cafe,1,4.0,52
692,food,POINT (-0.102052688598633 51.5458012795971),siXePzKrylD_xPos23hlVA,51.5458012795971,-0.102052688598633,Maison D'être,1,4.5,51
693,food,POINT (-0.0530246183202313 51.5198880062398),OLXnVhh19HtAnbywQzD3zw,51.5198880062398,-0.0530246183202313,Rinkoff Bakeries,1,4.5,48
694,food,POINT (-0.135823 51.515468),vLX78mD-aZPd-3AyGcryWA,51.515468,-0.135823,Tap Coffee,1,4.0,47
695,food,POINT (-0.125438216602333 51.5176490927972),BDIpKgowzdAd3qqjSjOoOQ,51.5176490927972,-0.125438216602333,Camera Museum,1,4.0,44
696,food,POINT (-0.118457 51.530469),hWJYKoBLzeQ6STpTp6FoYw,51.530469,-0.118457,Paolina's Thai Cafe,1,4.5,43
697,food,POINT (-0.132791195106506 51.5142249090856),L2Mb_ssxBUUtXz9UJmqRSA,51.5142249090856,-0.132791195106506,Soho Joe,1,4.0,43
698,food,POINT (-0.1213579 51.5310148),WviWKTmXpSZWv7Pdt_7RyQ,51.5310148,-0.1213579,Pompidou Cafe,1,4.0,41
699,food,POINT (-0.1322330868332 51.5128974359911),6gV-0CW_Gl4lhwsql5_f-g,51.5128974359911,-0.1322330868332,Algerian Coffee Stores,1,4.5,40
700,food,POINT (-0.205349 51.515104),hq85nymp9E0OUe8zUnQclA,51.515104,-0.205349,Kitchen and Pantry,1,3.5,40
701,food,POINT (-0.1135442 51.5003689),4rpkLLSPzVRqdHlM9_-9Cw,51.5003689,-0.1135442,Four Corners Cafe,1,4.5,40
702,food,POINT (-0.1303394 51.5120613),811USW7rcrzrwRgzI41ppg,51.5120613,-0.1303394,Chatime,1,3.5,38
703,food,POINT (-0.17628170716244 51.493706018346),x58LDkXGU7vC8-KRDlS9Mw,51.493706018346,-0.17628170716244,Raison D'Etre,1,4.5,38
704,food,POINT (-0.0995047 51.5256799),RYao1HkkY3BbyC62knoI8w,51.5256799,-0.0995047,Goswell Road Coffee,1,4.0,37
705,food,POINT (-0.1035965 51.5365826),DY2qHkTlkWB8UVxnaCWj-w,51.5365826,-0.1035965,Euphorium Bakery,1,3.5,35
706,food,POINT (-0.0984105 51.50069),UESyhTRQY4CYtGNoYBc52Q,51.50069,-0.0984105,Terry's Cafe,1,4.5,34
707,food,POINT (-0.138379 51.512154),XL7cx1Sb3dFPak2gkPOzKw,51.512154,-0.138379,Soho Grind,1,4.0,33
708,food,POINT (-0.131178508004041 51.5142949389071),3qieBTC6MBqc1UcZAHDxUA,51.5142949389071,-0.131178508004041,Thirst Bar,1,3.5,33
709,food,POINT (-0.136428 51.512986),aOv_iLkGoPQo6214iS2vJg,51.512986,-0.136428,Fernandez & Wells,1,4.5,33
710,food,POINT (-0.10910041841816 51.525982413205),sqNehSxT2qk5bAfdiOBl9Q,51.525982413205,-0.10910041841816,Brill,1,4.5,32
711,food,POINT (-0.122018814086914 51.5143394470215),LYPuCoeoYpRpMcvFfwK3wQ,51.5143394470215,-0.122018814086914,Farmstand,1,4.0,32
712,food,POINT (-0.124717 51.523375),fx959BvpAYc4EN41NUS2Kw,51.523375,-0.124717,Pret A Manger,1,4.0,32
713,food,POINT (-0.0861310958862305 51.5144180450497),pKqamV-oScNY5zgsU961QQ,51.5144180450497,-0.0861310958862305,Taylor St Baristas,1,4.0,31
714,food,POINT (-0.123588235886524 51.5276449011142),E_3NekwxctQ3BzN7tLKk2A,51.5276449011142,-0.123588235886524,Casa Tua,1,4.5,31
715,food,POINT (-0.120119 51.51216),dlCynaTvL-pRghEH_z0ayA,51.51216,-0.120119,Double Shot Coffee Company,1,3.5,31
716,food,POINT (-0.1885342 51.5005205),riWepzZEIHj82UiDk_WVLQ,51.5005205,-0.1885342,Montparnasse Cafe,1,4.5,31
717,food,POINT (-0.1407954 51.5399813),exjNWU4T_uzKOtH3uHIutQ,51.5399813,-0.1407954,Camden Coffee House,1,4.0,30
718,food,POINT (-0.107608515753707 51.5320215750491),GGG-14QFlozKOOSDAlDZ3g,51.5320215750491,-0.107608515753707,Saint Espresso,1,4.5,30
719,food,POINT (-0.182183 51.494486),8_1eFL3Dp0mq7Vq4tVedfw,51.494486,-0.182183,Pret A Manger,1,4.0,30
720,food,POINT (-0.0838909 51.5272064),harax0l-gE7p6x9-pdra4w,51.5272064,-0.0838909,Pitfield London,1,3.5,30
721,food,POINT (-0.190696999430656 51.489143371582),5sastzP0XG9cG5b38ndZFQ,51.489143371582,-0.190696999430656,Brownie Box,1,4.5,29
722,food,POINT (-0.125441551208496 51.5302124831156),BQUaASL4IwW8Qu_1bl711A,51.5302124831156,-0.125441551208496,Starbucks,1,3.5,28
723,food,POINT (-0.138217 51.49208),yIACfv4FlV9_z49CtOATHw,51.49208,-0.138217,Gastronomica,1,4.0,28
724,food,POINT (-0.0244143954638809 51.4921565081536),B6oZuZIUt3IVvViQB20zXA,51.4921565081536,-0.0244143954638809,Hubbub,1,4.5,27
725,food,POINT (-0.146655096405732 51.5412866087782),1-ELFsotKBvc5WbfqEsrdg,51.5412866087782,-0.146655096405732,Yumchaa Camden Market,1,4.0,27
726,food,POINT (-0.1283833 51.5073013),XasmUZmzu5L6QMax9SKpdw,51.5073013,-0.1283833,Pret A Manger,1,4.0,26
727,food,POINT (-0.118617 51.5129),2Ffr8Fs_OlGQqxT7TN_nJg,51.5129,-0.118617,Lundenwic,1,4.5,26
728,food,POINT (-0.107909992126366 51.5500471393663),335bAiGx1OzbnmgV-6dE4g,51.5500471393663,-0.107909992126366,Le Peche Mignon,1,4.5,25
729,food,POINT (-0.158816958393108 51.5135516676829),Ucq1UTEPjOUzLr0dK1v7PA,51.5135516676829,-0.158816958393108,Pret A Manger,1,4.0,25
730,food,POINT (-0.1239844 51.5160963),QabSszlTwTN7a8jg5sY9QA,51.5160963,-0.1239844,Ecco Cafe,1,4.0,25
731,food,POINT (-0.1314045 51.5132621),fIg1VEHmj9H7p1l3-GEUuQ,51.5132621,-0.1314045,Caffe Nero,1,4.0,25
732,food,POINT (-0.141718536615372 51.5165178327546),KRyt1u6SBc2ZQNc2rwfhbw,51.5165178327546,-0.141718536615372,Curators Coffee Gallery,1,4.5,25
733,food,POINT (-0.156789651902094 51.5173128120027),Czq_ia30ykQhR5J1bAhTKg,51.5173128120027,-0.156789651902094,Food Filosophy,1,3.5,25
734,food,POINT (-0.119426675140858 51.5174980163574),ENQ5m-KQnqmUSJke5YdJLw,51.5174980163574,-0.119426675140858,Krispy Kreme,1,4.0,24
735,food,POINT (-0.166506256819374 51.4983081615296),3AYyg01e4zSMCcpxg-gpJQ,51.4983081615296,-0.166506256819374,Chapati & Karak,1,4.0,24
736,food,POINT (-0.1930041 51.4923794),BNAddFkvoUGR1l6AL32p8w,51.4923794,-0.1930041,Over Under Coffee,1,5.0,24
737,food,POINT (-0.1420717 51.4964434),wfJf7U6Z00vzQxiMZhLFuQ,51.4964434,-0.1420717,Pret A Manger,1,4.0,24
738,food,POINT (-0.102642286734127 51.5134264160446),SpMzwgQjKcnSnKQvwjxckQ,51.5134264160446,-0.102642286734127,Alchemy,1,4.5,24
739,food,POINT (-0.0716934 51.523384),QDXJzvH2EqIvcR3pt66Iig,51.523384,-0.0716934,Damascu Bite,1,3.5,24
740,food,POINT (-0.09837810450744661 51.546910711),PHTcl--LbBwA1N6EHZV_sg,51.546910711,-0.0983781045074466,New London Cafe,1,4.5,23
741,food,POINT (-0.0571632385253906 51.5048292310893),4VJ5g-TmSUfCVA6Gs7u4lA,51.5048292310893,-0.0571632385253906,Cinnamon Coffee Shop,1,4.5,22
742,food,POINT (-0.1116836 51.5136589),xdqawE3wv2yNBvaqJ08WCQ,51.5136589,-0.1116836,Fleet Street Press,1,4.0,22
743,food,POINT (-0.133973 51.496878),u4fN4OgdtAzT4xeiZut3qw,51.496878,-0.133973,Flat Cap Coffee Co,1,4.5,22
744,food,POINT (-0.080335 51.497604),wE0QAquH4HfeOBCT9Y0Oqw,51.497604,-0.080335,Hej Coffee,1,4.0,22
745,food,POINT (-0.126514434814453 51.5318677114238),mXFFXB4QgzxNF07LxYcJcw,51.5318677114238,-0.126514434814453,Benugo,1,4.0,22
746,food,POINT (-0.055691 51.5513968),f8s8dT9Rm4359xUVHtiqRA,51.5513968,-0.055691,Black Cat,1,5.0,22
747,food,POINT (-0.062244 51.535958),4pBpNRpJ_87H3f34MOfJsQ,51.535958,-0.062244,F. Cooke,1,4.0,22
748,food,POINT (-0.129988998174667 51.5136222839355),aXUt42VCqy-5bJQclu-vUQ,51.5136222839355,-0.129988998174667,Chatime,1,3.5,21
749,food,POINT (-0.1289714 51.5110778),xj930RoCOZhGjTcrZ15-MA,51.5110778,-0.1289714,Fiori Corner,1,3.0,21
750,food,POINT (-0.12586 51.518094),8mCJ62-bRMigcylb18W4Zw,51.518094,-0.12586,Bibimbab Cafe,1,3.5,20
751,food,POINT (-0.082579 51.5257255),rM67Kpx1ytLkY1V_rtgeQQ,51.5257255,-0.082579,The Attendant,1,4.0,20
752,food,POINT (-0.227837562561035 51.4926600176647),rQKDeNCx8LkUR12YH9LpVg,51.4926600176647,-0.227837562561035,Bäkehaus,1,4.5,20
753,food,POINT (-0.127287250243864 51.5175164253045),BJPoMcoKJxrs_QT4_PcL8A,51.5175164253045,-0.127287250243864,Bloomsbury Cafe,1,4.0,20
754,food,POINT (-0.125182 51.525397),f2ubaZPfDqxtqw64k21X8A,51.525397,-0.125182,Alara Health Store,1,3.5,20
755,food,POINT (-0.1143629 51.5000747),xTno948bD8MVyt37dcUJlw,51.5000747,-0.1143629,Barbarellas,1,4.5,20
756,food,POINT (-0.174509 51.515393),tbzentkM8HGfavVML6l8gA,51.515393,-0.174509,Lite Bite,1,2.5,20
757,food,POINT (-0.0810502413027092 51.4980461313304),-EPJuMu8Qbr5azjHu_QOtg,51.4980461313304,-0.0810502413027092,The Watch House,1,4.5,20
758,food,POINT (-0.141991 51.516897),HRd4jG-gDdOAKIAFKugsww,51.516897,-0.141991,Little Portland Cafe,1,4.5,19
759,food,POINT (-0.116975 51.513611),OTLblBhxPkLb5Lprnv7fxQ,51.513611,-0.116975,Wright's Bar,1,4.0,19
760,food,POINT (-0.135876202265308 51.5147618740806),JNmOESYu_kr6KZlM4TkoLA,51.5147618740806,-0.135876202265308,Toi & Moi,1,3.5,19
761,food,POINT (-0.07725894294631 51.5396907022005),X2CHzdmpEGukjTjo63txCA,51.5396907022005,-0.07725894294631,Bread & Butter,1,4.5,19
762,food,POINT (-0.151826 51.518176),nBHgQH6Fo7VZ5ipeV9FZmA,51.518176,-0.151826,Bonne Bouche,1,4.0,19
763,food,POINT (-0.0038629 51.536288),UJG1Frfz5TvXdJpNL_fm1Q,51.536288,-0.0038629,Pie Crust Cafe,1,4.5,18
764,food,POINT (-0.0743804 51.5238203),AZwNtMa2F7rJhESXjlv2VA,51.5238203,-0.0743804,Milk Tea & Pearl,1,4.0,18
765,food,POINT (-0.175164 51.493965),hNQQROusTCsu4eN40jO4qA,51.493965,-0.175164,Cafe Floris,1,3.0,18
766,food,POINT (-0.1418152 51.4639533),EoKnQhi3yOeswWS_INecMw,51.4639533,-0.1418152,Fantasia Café,1,3.0,18
767,food,POINT (-0.0259060002863407 51.4792366027832),khnhd6DnBb-zIfZEC1y9zg,51.4792366027832,-0.0259060002863407,The Waiting Room,1,4.5,18
768,food,POINT (-0.1382647 51.4991936),MY5vPpDxJFPzj-wR4_pUsg,51.4991936,-0.1382647,Crumpets,1,4.0,18
769,food,POINT (-0.198225594459471 51.4806937260713),gRp1o8vSY1yj87C22zOM8Q,51.4806937260713,-0.198225594459471,Shot Espresso,1,5.0,18
770,food,POINT (-0.113189220428467 51.4617615420279),7pZSLEAOBOOcaHaISwlLUQ,51.4617615420279,-0.113189220428467,Wild Caper,1,4.0,18
771,food,POINT (-0.1221309 51.5309406),irv-kDMwzbOLT5ZGSr_FcA,51.5309406,-0.1221309,Pret A  Manger,1,4.5,18
772,food,POINT (-0.1189322 51.5112479),yjvn4JVBqwup4XQ5M0zaBQ,51.5112479,-0.1189322,Crown Cafe,1,3.5,17
773,food,POINT (-0.1449043 51.4959224691601),mQ6NmX9Ngos7f5Up1gm7yw,51.4959224691601,-0.1449043,Pret A Manger,1,4.0,17
774,food,POINT (-0.101923942565918 51.522376029083),SgrEMAIg6bDW5LYSxYzWwQ,51.522376029083,-0.101923942565918,Anfa Café,1,4.5,17
775,food,POINT (-0.1227604 51.5135034),HXjHL0L7lqtQQ1KJ0ZKAug,51.5135034,-0.1227604,Kastner and Ovens,1,4.5,17
776,food,POINT (-0.127285 51.5115768),1C0u7SMTRLQePx_o-Ic0cw,51.5115768,-0.127285,Pret A Manger,1,4.5,17
777,food,POINT (-0.172924995422363 51.5484962463379),JqVOEsAUuhoAu-uRtzMtFQ,51.5484962463379,-0.172924995422363,Oliver's Village Cafe,1,4.5,17
778,food,POINT (-0.141101702390206 51.5130316067098),zXJJQrxrLH5XZ7s4K6t2Rg,51.5130316067098,-0.141101702390206,Starbucks,1,4.0,17
779,food,POINT (-0.133336 51.51282),FRiYiV1A2nUNE82zUMbc0w,51.51282,-0.133336,Starbucks,1,3.5,17
780,food,POINT (-0.156902 51.52134),F-6TPUs5puIqMtDh4IIVDA,51.52134,-0.156902,Pret A Manger,1,4.0,17
781,food,POINT (-0.1184993 51.5222952),0KZ107VXX8qsbGjRNNuWzQ,51.5222952,-0.1184993,Tutti's,1,4.0,16
782,food,POINT (-0.07681499999999999 51.5262201),r-USboJFp1ifbtFWtbTGhQ,51.5262201,-0.076815,Paper and Cup,1,4.5,16
783,food,POINT (-0.21951533988944 51.534397945151),IixPl7GkodSw-Rd0oEa0bQ,51.534397945151,-0.21951533988944,Minkie's Deli,1,3.5,16
784,food,POINT (-0.1505938 51.5186892),Xo3LnxSE9hEMu_8O4BtFXg,51.5186892,-0.1505938,Amanzi Tea,1,4.0,16
785,food,POINT (-0.1251135 51.5257679),RF_1SX5_pQpJat3e6mYBkQ,51.5257679,-0.1251135,Continental Stores,1,4.5,16
786,food,POINT (-0.178253 51.4825785),0s-61pNDaYxlw4G6iAF7ig,51.4825785,-0.178253,Mona Lisa Cafe & Restaurant,1,4.0,16
787,food,POINT (-0.2237577 51.4904085),8dM69srrUyN01iESHxct7g,51.4904085,-0.2237577,Antipode,1,4.5,16
788,food,POINT (-0.162099003791809 51.5222244262695),N0kfB-iYOb3Fs9RkOfwBlA,51.5222244262695,-0.162099003791809,Gino's Coffee Bar,1,4.5,16
789,food,POINT (-0.156662 51.52086),k7qmLDOGfESN8fDBQZZL7w,51.52086,-0.156662,106 Baker St,1,4.5,16
790,food,POINT (-0.13193694019836 51.512982513308),grfcexcNWkru_-WsFs87xA,51.512982513308,-0.13193694019836,Joe and the Juice,1,3.5,16
791,food,POINT (-0.1256728 51.5149994),rfJrsoQhS9h__X9p-Sj2HA,51.5149994,-0.1256728,I Love Nata,1,4.0,16
792,food,POINT (-0.0947035655992168 51.503841999477),XN7K4g1Wq-93WYvg85EgMg,51.503841999477,-0.0947035655992168,The Gentlemen Baristas,1,4.5,15
793,food,POINT (-0.07697600126266479 51.527774810791),EanCLBAeSJNU9MA0pVlHVg,51.527774810791,-0.0769760012626648,Cafe Twelve,1,4.5,15
794,food,POINT (-0.112909 51.5132226),7c74EsUMAPYcjWCwYNGn_A,51.5132226,-0.112909,Apostrophe,1,4.0,15
795,food,POINT (-0.111818999052048 51.4626312255859),zE_UPVsKaoNX0dhuN5jqlg,51.4626312255859,-0.111818999052048,Burnt Toast Cafe,1,4.0,15
796,food,POINT (-0.1180363 51.5211323),9kYUIi9guLcWh3iFOJ_vWg,51.5211323,-0.1180363,Knockbox Coffee,1,4.5,15
797,food,POINT (-0.192514 51.500753),hdHgeTZbUCUQ_PZ1nG96PA,51.500753,-0.192514,Pret A Manger,1,4.0,15
798,food,POINT (-0.123576998710632 51.5307159423828),W6xWArPYBJ2a1yyLLcJrdw,51.5307159423828,-0.123576998710632,Giraffe Stop,1,3.0,15
799,food,POINT (-0.221239 51.5072023),mY7jfpFRET1_34ZMTpEhIw,51.5072023,-0.221239,Sacred,1,4.0,15
800,food,POINT (-0.11076807793941 51.568414044592),SaU08qQw8zHV-Hcl5uJc2A,51.568414044592,-0.11076807793941,Boulangerie Bon Matin,1,4.0,15
801,food,POINT (-0.14138600230217 51.516529083252),diwLYVgf0iD9bWzNkGYjdg,51.516529083252,-0.14138600230217,Benugo,1,3.5,15
802,food,POINT (-0.267533169952187 51.492910986855),RuXSheCwh8or-YhnxjDvzg,51.492910986855,-0.267533169952187,Cafe Luna,1,3.5,15
803,food,POINT (-0.14012399315834 51.5241775512695),NLxsxrrOVo-Fwg78VuhBqg,51.5241775512695,-0.14012399315834,"Coffee, Cakes & Kisses",1,5.0,15
804,food,POINT (-0.13331281200855 51.514697552511),9j2NnQ-SqTw-3NOoSoRY4g,51.514697552511,-0.13331281200855,Make Mine,1,4.0,14
805,food,POINT (-0.1659348 51.5510701),zjX_19K5wWXcdD3ZruZizg,51.5510701,-0.1659348,Euphorium Bakery,1,3.5,14
806,food,POINT (-0.0354996 51.5264645),P_maLzj1XGKe19PqsZNG5g,51.5264645,-0.0354996,The Coffee Room,1,4.5,14
807,food,POINT (-0.127563164435491 51.5124694491728),jDxMm0wpNq7QJDDx-tHhaw,51.5124694491728,-0.127563164435491,Starbucks,1,4.5,14
808,food,POINT (-0.1381433 51.5129012),xcUgSY2x12cCdw_1jIiFKQ,51.5129012,-0.1381433,Espresso Bar Mozzino,1,4.0,14
809,food,POINT (-0.156502 51.519155),bCkjiJ6wM3vFBebsu9PtgA,51.519155,-0.156502,Paul,1,4.0,14
810,food,POINT (-0.257217525077126 51.4923867370861),CwQhljS__yTGSl3RYX17Uw,51.4923867370861,-0.257217525077126,Ngon,1,4.0,14
811,food,POINT (-0.0697779 51.5158654),nqb4cbTxrOlK4RVOVwDxXQ,51.5158654,-0.0697779,Straits Times Kopitiam,1,4.5,14
812,food,POINT (-0.080703424115429 51.5247483051872),zztlUqOFCGsEttPqCTGYFw,51.5247483051872,-0.080703424115429,Apostrophe,1,3.0,14
813,food,POINT (-0.101584 51.506313),N-U604mIyucKujlDgzTCig,51.506313,-0.101584,Frank's Cafe,1,4.5,14
814,food,POINT (-0.15207870551226 51.515914604814),MfMhFXlixT3o3FxMicHGiQ,51.515914604814,-0.15207870551226,Caffè Fratelli,1,4.0,13
815,food,POINT (-0.128739782807152 51.5117163658139),RUlcbocOFeAaNnLHpApyvg,51.5117163658139,-0.128739782807152,Up...T,1,4.0,13
816,food,POINT (-0.13316886977618 51.5275988423589),CfFMODTJYa4ae2BDTwuGtA,51.5275988423589,-0.13316886977618,Pret A Manger,1,3.0,13
817,food,POINT (-0.147504 51.506049),k3hqxm7Aar7m1O0kOcgxyw,51.506049,-0.147504,Piccolo Bar,1,4.0,13
818,food,POINT (-0.17408156958559 51.4936420457497),Hpmd_YrEu2xU3Bv1azUqig,51.4936420457497,-0.17408156958559,Pret A Manger,1,3.5,13
819,food,POINT (-0.1013845 51.3720638),x2jxOLgXuN5yty725u-__w,51.3720638,-0.1013845,Matthews Yard,1,4.5,13
820,food,POINT (-0.068789 51.511722),39nGPmVcnpp3RaenmlfZCQ,51.511722,-0.068789,Long Shot Coffee,1,4.5,13
821,food,POINT (-0.1237716 51.5189056),GWeEuO9SvFKldRJBVJFBcw,51.5189056,-0.1237716,Le Cordon Bleu,1,4.5,13
822,food,POINT (-0.0800562913786429 51.5312311207293),Shtz148OZ4G6E5Fg4coVXA,51.5312311207293,-0.0800562913786429,The Barrel Boulangerie,1,3.5,13
823,food,POINT (-0.0797870010137558 51.4743041992188),bVO_8lM9tVjHda2kALn0UA,51.4743041992188,-0.0797870010137558,No 67,1,4.0,13
824,food,POINT (-0.0823529729675027 51.5239139800907),RMDw1XFuPjzaniCOxaC50A,51.5239139800907,-0.0823529729675027,Taylor St Baristas,1,4.5,13
825,food,POINT (-0.133756 51.512782),cA6ehaVUIRvEg8zD0cKzqA,51.512782,-0.133756,Pret A Manger,1,4.0,13
826,food,POINT (-0.141918025910854 51.5461019420634),I1FOTVrKirQfWT1yv25yxA,51.5461019420634,-0.141918025910854,Doppio Cafe,1,4.0,13
827,food,POINT (-0.0695563852787018 51.5200962621841),wuaG5xQ2STIZ8IEUEB4Mbw,51.5200962621841,-0.0695563852787018,Doppio Coffee Warehouse,1,4.5,13
828,food,POINT (-0.07984430000000001 51.5178601),nshR8rItMhlkwgldZNI8EA,51.5178601,-0.0798443,Pret A Manger,1,4.0,13
829,food,POINT (-0.1839407 51.4978557),nwUGs_ngT5SapP9xM0CDIA,51.4978557,-0.1839407,Cafe Deco,1,3.5,12
830,food,POINT (-0.121645615008902 51.5252097167853),yckLgWUnrr2AdkDCfz4PKA,51.5252097167853,-0.121645615008902,The Foundling Museum,1,4.0,12
831,food,POINT (-0.1878933 51.5134125),EbHk7gUE0I3M4ZLnZnHpdw,51.5134125,-0.1878933,Pret A Manger,1,4.0,12
832,food,POINT (-0.1639629 51.5497665),lQOOGs_mWG0sfkeos0RbaA,51.5497665,-0.1639629,Chez Nous,1,4.0,12
833,food,POINT (-0.13759933412075 51.5061875471547),XA-naFH1DA1DktFwLWuGrg,51.5061875471547,-0.13759933412075,Fuzzy's Grub Crown Passage,1,4.5,12
834,food,POINT (-0.127161601862983 51.5136776805331),ChMfB8xky0tQ_XZ_EAfHsA,51.5136776805331,-0.127161601862983,Caffè Nero,1,3.5,12
835,food,POINT (-0.0201370455077949 51.5032443662736),C892dJ9x2EFbjyO8EVmPkA,51.5032443662736,-0.0201370455077949,Pret A Manger,1,4.0,12
836,food,POINT (-0.1362577 51.5224242),0YdJguosmyrIt07eQPBhGg,51.5224242,-0.1362577,Pret A Manger,1,3.5,12
837,food,POINT (-0.11325169959113 51.5036426706536),ygnWm220rsXYbtiCtx2q7g,51.5036426706536,-0.11325169959113,Starbucks,1,2.5,11
838,food,POINT (-0.2255422 51.4930347),mxMFCXGP-6cCwlFFeOkgPw,51.4930347,-0.2255422,Pret A Manger,1,4.0,11
839,food,POINT (-0.114292 51.463768),Z18th3btv_rWDjkUnJeWJg,51.463768,-0.114292,San Marino,1,4.5,11
840,food,POINT (-0.193012041694387 51.4922503801824),uzzVn5QSdiKzfCSNZtFBBw,51.4922503801824,-0.193012041694387,Pret A Manger,1,4.5,11
841,food,POINT (-0.1403202 51.5367341),-3USXGHx6Xcpwq-ueoED7g,51.5367341,-0.1403202,Melissa,1,4.0,11
842,food,POINT (-0.1315061 51.5101462),ZbwuMJl2fpwMy7476lo6Ig,51.5101462,-0.1315061,Pret A Manger,1,3.5,11
843,food,POINT (-0.075224 51.520082),l9Z9_UdByjJRgTTQgnJsSA,51.520082,-0.075224,Department of Coffee and Social Affairs,1,4.5,11
844,food,POINT (-0.101974 51.522928),fynDCdrNc5ZYREoTdqcY8w,51.522928,-0.101974,Benugo,1,3.0,11
845,food,POINT (-0.12372 51.510113),SgkpvCD6vRHKi20oer-sWA,51.510113,-0.12372,Chequers,1,5.0,11
846,food,POINT (-0.146729706191089 51.5466077925974),JufEVrCH41pMNDuS9_N-gw,51.5466077925974,-0.146729706191089,The Fields Beneath,1,4.5,11
847,food,POINT (-0.1428489 51.4990164),s_oVaCneOdnzBgCKD9_R1w,51.4990164,-0.1428489,Le Signore Snack Bar,1,4.5,11
848,food,POINT (-0.1443541 51.4949738),gaeFeAK0nnpDSl5LYHuDhw,51.4949738,-0.1443541,Caffè Nero,1,3.5,11
849,food,POINT (-0.113564 51.522216),67pNmBN6AMm-CUhfCTIUmQ,51.522216,-0.113564,Andrew's,1,4.0,11
850,food,POINT (-0.134420361326989 51.5273815861241),-NHIDQFYpDh6Z_HWZ6Q7Mw,51.5273815861241,-0.134420361326989,Caffè Nero,1,3.5,11
851,food,POINT (-0.1989799 51.4797673),DHm_iHg2EaVt_endAguR7Q,51.4797673,-0.1989799,Chairs and Coffee,1,4.0,11
852,food,POINT (-0.0741188 51.5584563),dLMrtrtaMgqhXXcO1altIQ,51.5584563,-0.0741188,Z Cafe Bar Restaurant,1,4.5,11
853,food,POINT (-0.127179622650146 51.510425176938),11z-srzCxdH48EMtpNzFfg,51.510425176938,-0.127179622650146,Starbucks,1,4.0,11
854,food,POINT (-0.178269320031823 51.5122422350936),4Dsj_RZLMAlay-UBrbrByQ,51.5122422350936,-0.178269320031823,Sheila's Sandwich Bar,1,3.5,10
855,food,POINT (-0.0963705 51.4898503),D1Z5wn3_6FQoz1n1rASuvg,51.4898503,-0.0963705,Cafe House,1,4.5,10
856,food,POINT (-0.09317994117736821 51.5127809613771),-HkQk8DoHwNvzuLKmsWwOA,51.5127809613771,-0.0931799411773682,Host Café,1,5.0,10
